     3.04           OBSERVATION DATA    M: Mixed            RINEX VERSION / TYPE
RTKCONV 2.4.3 b34                       20210417 235606 UTC PGM / RUN BY / DATE 
                                                            MARKER NAME         
                                                            MARKER NUMBER       
                                                            MARKER TYPE         
                                                            OBSERVER / AGENCY   
                    TRIMBLE NetR9       5.37,21/SEP/2018    REC # / TYPE / VERS 
                                                            ANT # / TYPE        
 -3959406.8860  3385707.4284  3667527.6518                  APPROX POSITION XYZ 
        0.0000        0.0000        0.0000                  ANTENNA: DELTA H/E/N
G   12 C1C L1C S1C C2W L2W S2W C2X L2X S2X C5X L5X S5X      SYS / # / OBS TYPES 
E   12 C1X L1X S1X C7X L7X S7X C5X L5X S5X C8X L8X S8X      SYS / # / OBS TYPES 
J   15 C1C L1C S1C C1X L1X S1X C1Z L1Z S1Z C2X L2X S2X C5X  SYS / # / OBS TYPES 
       L5X S5X                                              SYS / # / OBS TYPES 
  2021    03    19    12    00   00.0000000     GPS         TIME OF FIRST OBS   
  2021    03    19    12    00   59.0000000     GPS         TIME OF LAST OBS    
G L1C                                                       SYS / PHASE SHIFT   
G L2W  0.00000                                              SYS / PHASE SHIFT   
G L2X -0.25000                                              SYS / PHASE SHIFT   
G L5X  0.00000                                              SYS / PHASE SHIFT   
E L1X  0.00000                                              SYS / PHASE SHIFT   
E L7X  0.00000                                              SYS / PHASE SHIFT   
E L5X  0.00000                                              SYS / PHASE SHIFT   
E L8X  0.00000                                              SYS / PHASE SHIFT   
J L1C                                                       SYS / PHASE SHIFT   
J L1X  0.25000                                              SYS / PHASE SHIFT   
J L1Z  0.00000                                              SYS / PHASE SHIFT   
J L2X  0.00000                                              SYS / PHASE SHIFT   
J L5X  0.00000                                              SYS / PHASE SHIFT   
  0                                                         GLONASS SLOT / FRQ #
                                                            GLONASS COD/PHS/BIS 
                                                            END OF HEADER       
> 2021 03 19 12 00 00.0000000  0 24                     
G17  20347196.273   106925326.951          50.000    20347196.129    83318428.838          56.000    20347195.949    83318418.589          51.400                                                  
G03  21928473.273   115234951.006          46.400    21928475.195    89793529.753          36.200    21928475.270    89793505.507          46.400    21928475.656    86052113.536          52.100  
G09  22654738.969   119051496.127          41.600    22654741.254    92767401.112          31.900    22654741.035    92767388.875          44.100    22654741.020    88902083.497          49.100  
G28  22456477.992   118009628.000          41.400    22456477.508    91955565.080          28.900                                                                                                  
G04  22422950.148   117833449.444          42.600    22422950.703    91818256.632          30.700    22422950.965    91818248.371          44.500    22422953.691    87992488.446          49.300  
G06  21978166.273   115496055.894          44.000    21978168.070    89996990.805          46.900    21978168.578    89996971.545          46.500    21978167.898    86247100.556          50.800  
G01  23876262.359   125470780.369          36.800    23876265.824    97769545.741          21.500    23876265.449    97769490.488          38.900    23876264.410    93695771.082          45.200  
J07  37283203.641   195924584.652          39.200    37283203.285   195924578.939          42.400    37283197.980   195924608.865          44.900    37283202.313   152668509.477          47.500    37283205.227   146307322.524          51.700  
J01  37090983.547   194914515.709          44.000    37090983.586   194914483.949          47.700    37090980.492   194914466.204          44.300    37090981.641   151881427.279          45.500    37090984.746   145553036.546          50.200  
J02  37495770.070   197041623.037          37.200    37495770.273   197041607.325          41.700    37495766.156   197041589.639          38.500    37495769.359   153538916.520          38.900    37495772.465   147141462.997          45.000  
J03  38338235.453   201468834.171          48.000    38338235.520   201468822.420          51.500    38338231.469   201468802.051          49.100    38338234.645   156988697.716          52.000    38338237.633   150447502.481          55.200  
G19  20555058.664   108017594.032          46.800    20555056.020    84169576.126          41.600                                                                                                  
G02  25210821.023   132483778.539          30.600    25210820.473   103234108.881          14.800                                                                                                  
G14  23157330.273   121692643.274          40.400    23157329.484    94825434.373          25.800    23157329.656    94825425.148          42.000    23157333.391    90874367.084          46.600  
G22  24485754.313   128673579.973          37.200    24485751.426   100265151.960          21.300                                                                                                  
E01  27665789.734   145384713.846          38.600    27665788.648   111398679.616          41.400    27665788.988   108566507.551          41.700    27665789.293   109982595.183          45.400  
E26  26338853.211   138411610.666          38.600    26338852.473   106055650.656          42.700    26338853.125   103359321.084          42.600    26338853.828   104707485.975          46.500  
E03  25796390.563   135560974.569          44.200    25796389.449   103871404.119          47.000    25796389.590   101230608.998          47.000    25796390.078   102551008.663          50.600  
E07  27139937.609   142621331.422          39.200    27139936.836   109281279.749          42.100    27139936.297   106502941.574          41.800    27139937.281   107892111.271          45.800  
E21  26280671.758   138105886.542          42.000    26280670.578   105821400.196          45.500    26280671.164   103131028.783          45.300    26280671.555   104476216.597          49.300  
E13  23763893.711   124880140.636          48.600    23763891.293    95687390.351          52.500    23763891.641    93254661.697          53.000    23763892.219    94471026.134          56.000  
E08  22699577.828   119287105.167          48.000    22699575.203    91401806.028          51.200    22699575.047    89078034.323          50.800    22699575.750    90239922.279          54.600  
E27  27336511.406   143654366.221          37.600    27336510.270   110072834.603          42.400    27336510.961   107274374.017          43.000    27336511.129   108673604.417          46.700  
E15  24772469.727   130180294.668          45.800    24772469.414    99748580.135          49.900    24772469.703    97212602.518          50.600    24772470.277    98480594.427          53.300  
> 2021 03 19 12 00 01.0000000  0 24                     
G17  20347111.094   106924878.023          50.400    20347110.645    83318079.024          56.200    20347110.410    83318068.782          51.600                                                  
G03  21928990.906   115237670.148          46.400    21928992.656    89795648.566          36.100    21928992.820    89795624.313          46.600    21928993.164    86054144.068          52.100  
G09  22654219.078   119048758.943          41.200    22654220.473    92765268.244          31.800    22654220.313    92765256.025          44.300    22654220.031    88900039.505          49.100  
G28  22456979.617   118012261.120          41.200    22456978.766    91957616.867          29.100                                                                                                  
G04  22422744.969   117832371.709          42.600    22422745.613    91817416.841          31.300    22422745.527    91817408.595          44.300    22422748.590    87991683.661          49.300  
G06  21977851.688   115494404.100          44.600    21977853.773    89995703.693          46.700    21977854.016    89995684.448          46.600    21977853.621    86245867.087          50.800  
G01  23876753.328   125473358.991          36.800    23876756.539    97771555.068          20.600    23876756.555    97771499.807          38.500    23876754.969    93697696.676          45.200  
J07  37283203.828   195924586.095          39.200    37283203.512   195924580.350          42.400    37283198.008   195924610.315          45.100    37283202.336   152668510.590          47.700    37283205.563   146307323.580          51.800  
J01  37091013.969   194914676.397          44.200    37091014.156   194914644.654          47.800    37091011.293   194914626.883          44.700    37091012.480   151881552.504          45.500    37091015.359   145553156.557          50.500  
J02  37495867.617   197042134.627          37.400    37495867.289   197042118.871          41.600    37495863.832   197042101.228          38.800    37495866.707   153539315.136          38.900    37495869.781   147141845.014          44.600  
J03  38338114.656   201468201.681          47.400    38338115.164   201468189.930          51.400    38338111.270   201468169.562          49.400    38338114.313   156988204.872          52.200    38338117.254   150447030.165          55.500  
G19  20554728.242   108015857.428          47.000    20554725.570    84168222.928          41.700                                                                                                  
G02  25210417.227   132481653.868          30.600    25210416.113   103232453.215          14.800                                                                                                  
G14  23157942.758   121695863.630          40.200    23157942.340    94827943.755          27.500    23157942.656    94827934.505          41.700    23157946.207    90876771.865          46.600  
G22  24486368.906   128676808.404          37.400    24486365.813   100267667.619          21.100                                                                                                  
E01  27665697.445   145384229.362          38.000    27665696.441   111398308.424          42.200    27665696.875   108566145.779          41.800    27665697.121   109982228.705          46.000  
E26  26338498.453   138409746.062          38.800    26338497.688   106054221.917          42.300    26338498.445   103357928.660          42.800    26338499.004   104706075.390          46.300  
E03  25796570.602   135561921.101          43.800    25796569.719   103872129.370          47.000    25796569.742   101231315.816          47.100    25796570.207   102551724.703          50.400  
E07  27139357.055   142618280.730          39.400    27139356.250   109278942.216          42.100    27139355.746   106500663.477          41.900    27139356.785   107889803.450          46.000  
E21  26280991.070   138107563.426          41.800    26280989.648   105822685.095          45.900    26280990.180   103132281.013          45.500    26280990.633   104477485.161          49.300  
E13  23763775.852   124879522.210          48.600    23763773.574    95686916.485          52.400    23763774.027    93254199.875          52.800    23763774.535    94470558.285          55.900  
E08  22699255.219   119285409.137          48.200    22699252.453    91400506.459          50.800    22699252.289    89076767.798          50.500    22699253.008    90238639.239          54.600  
E27  27337047.742   143657183.547          37.800    27337046.289   110074993.342          42.500    27337047.094   107276477.862          43.300    27337047.219   108675735.706          46.500  
E15  24772687.391   130181437.180          45.600    24772686.809    99749455.558          49.700    24772687.094    97213455.695          50.500    24772687.680    98481458.730          53.100  
> 2021 03 19 12 00 02.0000000  0 24                     
G17  20347025.727   106924429.579          50.000    20347025.211    83317729.587          56.100    20347025.125    83317719.339          51.300                                                  
G03  21929508.023   115240389.558          46.000    21929510.172    89797767.592          36.400    21929510.449    89797743.346          46.100    21929510.605    86056174.800          52.200  
G09  22653698.047   119046022.135          41.800    22653699.719    92763135.667          31.900    22653699.020    92763123.413          44.400    22653699.359    88897995.764          49.400  
G28  22457480.227   118014894.541          41.400    22457479.988    91959668.882          28.100                                                                                                  
G04  22422540.203   117831294.542          42.800    22422540.621    91816577.478          30.900    22422540.582    91816569.237          44.300    22422543.645    87990879.292          49.400  
G06  21977537.453   115492752.441          44.400    21977539.426    89994416.684          46.800    21977539.895    89994397.447          46.100    21977539.270    86244633.710          50.700  
G01  23877243.813   125475937.623          37.000    23877247.277    97773564.378          20.900    23877247.336    97773509.148          38.500    23877245.730    93699622.301          45.700  
J07  37283204.031   195924587.533          39.000    37283203.723   195924581.778          42.400    37283198.371   195924611.753          44.900    37283202.664   152668511.691          47.600    37283205.809   146307324.644          51.900  
J01  37091044.727   194914837.194          43.600    37091044.863   194914805.453          47.700    37091042.027   194914787.680          44.400    37091042.992   151881677.790          45.800    37091045.945   145553276.624          50.500  
J02  37495965.313   197042646.188          37.400    37495964.934   197042630.417          41.600    37495961.352   197042612.781          38.100    37495964.336   153539713.748          39.500    37495967.227   147142226.997          45.100  
J03  38337994.680   201467569.142          46.800    38337994.930   201467557.398          51.500    38337991.223   201467537.023          49.600    38337993.918   156987711.983          52.000    38337996.906   150446557.819          55.200  
G19  20554398.203   108014121.250          47.200    20554395.281    84166870.064          41.600                                                                                                  
G02  25210012.984   132479529.199          30.200    25210011.828   103230797.579          14.800                                                                                                  
G14  23158555.492   121699084.081          40.200    23158555.098    94830453.188          28.200    23158555.176    94830443.962          41.500    23158558.992    90879176.770          46.800  
G22  24486982.844   128680036.906          37.400    24486980.309   100270183.339          20.900                                                                                                  
E01  27665605.617   145383745.393          38.000    27665604.266   111397937.544          41.900    27665604.820   108565784.387          42.000    27665605.039   109981862.569          46.000  
E26  26338143.523   138407881.366          38.800    26338142.852   106052793.153          42.500    26338143.711   103356536.206          43.000    26338144.160   104704664.788          46.500  
E03  25796750.805   135562868.086          44.000    25796749.824   103872854.994          47.000    25796749.996   101232022.958          47.600    25796750.387   102552441.079          50.700  
E07  27138776.602   142615230.092          39.600    27138775.777   109276604.693          42.300    27138775.086   106498385.411          41.500    27138776.262   107887495.651          45.900  
E21  26281310.094   138109240.653          41.600    26281308.844   105823970.240          46.100    26281309.281   103133533.476          45.400    26281309.785   104478753.965          49.200  
E13  23763658.297   124878903.856          48.400    23763655.930    95686442.675          52.600    23763656.309    93253738.117          52.700    23763656.863    94470090.499          55.500  
E08  22698932.328   119283713.479          48.000    22698929.766    91399207.190          51.000    22698929.570    89075501.556          50.600    22698930.313    90237356.478          54.500  
E27  27337583.586   143660000.853          38.200    27337582.488   110077152.043          42.800    27337583.160   107278581.686          43.000    27337583.332   108677866.973          46.500  
E15  24772904.844   130182579.787          45.600    24772904.223    99750331.067          49.400    24772904.598    97214308.934          50.100    24772905.109    98482323.109          52.900  
> 2021 03 19 12 00 03.0000000  0 24                     
G17  20346940.281   106923981.582          50.200    20346940.027    83317380.494          55.900    20346939.848    83317370.245          51.300                                                  
G03  21930025.656   115243109.254          46.000    21930027.473    89799886.828          36.700    21930027.832    89799862.579          46.600    21930028.098    86058205.740          52.200  
G09  22653177.008   119043285.563          41.600    22653178.875    92761003.280          31.600    22653178.469    92760991.047          44.700    22653178.582    88895952.238          49.000  
G28  22457981.422   118017528.215          41.600    22457981.023    91961721.095          28.000                                                                                                  
G04  22422334.984   117830217.942          42.800    22422335.844    91815738.578          30.600    22422335.457    91815730.314          44.600    22422338.664    87990075.325          49.000  
G06  21977223.445   115491100.906          45.200    21977225.148    89993129.777          46.600    21977225.410    89993110.527          46.000    21977224.988    86243400.428          50.800  
G01  23877734.203   125478516.332          37.400    23877737.910    97775573.750          20.400    23877737.645    97775518.502          38.300    23877736.586    93701547.919          46.300  
J07  37283204.203   195924588.915          39.200    37283204.133   195924583.168          42.400    37283198.344   195924613.136          45.200    37283203.121   152668512.780          47.300    37283206.066   146307325.684          51.900  
J01  37091075.148   194914998.049          44.200    37091075.477   194914966.296          47.800    37091072.348   194914948.543          44.700    37091073.449   151881803.125          45.900    37091076.594   145553396.739          50.200  
J02  37496062.305   197043157.735          37.800    37496062.027   197043141.992          41.700    37496058.590   197043124.336          38.400    37496061.871   153540112.356          39.500    37496064.484   147142608.998          44.700  
J03  38337874.203   201466936.564          47.200    38337874.531   201466924.813          51.600    38337870.367   201466904.444          50.200    38337873.410   156987219.062          52.200    38337876.484   150446085.435          55.200  
G19  20554067.586   108012385.526          47.000    20554064.816    84165517.548          41.700                                                                                                  
G02  25209608.719   132477404.387          31.200    25209607.371   103229141.898          15.600                                                                                                  
G14  23159168.055   121702304.716          40.200    23159167.863    94832962.792          26.500    23159168.203    94832953.513          41.600    23159171.973    90881581.778          46.900  
G22  24487597.211   128683265.398          37.600    24487594.621   100272699.031          21.300                                                                                                  
E01  27665513.758   145383261.811          37.600    27665512.277   111397567.051          41.900    27665512.891   108565423.276          41.900    27665512.996   109981496.767          46.000  
E26  26337788.477   138406016.687          38.800    26337788.156   106051364.336          42.600    26337788.840   103355143.744          42.600    26337789.352   104703254.148          46.600  
E03  25796930.938   135563815.479          44.000    25796930.184   103873580.904          47.100    25796930.219   101232730.448          47.200    25796930.672   102553157.771          50.800  
E07  27138196.109   142612179.439          39.800    27138195.262   109274267.189          42.400    27138194.625   106496107.321          41.700    27138195.754   107885187.857          46.100  
E21  26281629.422   138110918.178          41.600    26281628.043   105825255.608          46.000    26281628.582   103134786.183          45.400    26281629.020   104480022.998          49.100  
E13  23763540.648   124878285.535          48.400    23763538.348    95685968.917          52.800    23763538.625    93253276.401          52.500    23763539.207    94469622.763          55.500  
E08  22698609.813   119282018.179          47.800    22698607.098    91397908.197          50.900    22698606.996    89074235.584          50.800    22698607.727    90236073.994          54.200  
E27  27338119.727   143662818.092          38.200    27338118.516   110079310.691          42.100    27338119.078   107280685.471          42.600    27338119.469   108679998.185          46.300  
E15  24773122.141   130183722.482          46.000    24773121.625    99751206.641          49.600    24773122.016    97215162.244          50.100    24773122.551    98483187.542          53.200  
> 2021 03 19 12 00 04.0000000  0 24                     
G17  20346855.398   106923534.067          50.000    20346854.875    83317031.782          56.000    20346854.898    83317021.533          51.600                                                  
G03  21930543.109   115245829.242          45.600    21930545.242    89802006.303          36.500    21930545.301    89801982.060          46.500    21930545.801    86060236.899          52.300  
G09  22652656.203   119040549.330          41.600    22652658.266    92758871.146          31.800    22652658.270    92758858.901          44.800    22652657.836    88893908.938          49.100  
G28  22458482.758   118020162.181          41.600    22458482.242    91963773.523          29.100                                                                                                  
G04  22422130.305   117829141.886          43.000    22422131.199    91814900.096          30.800    22422131.051    91814891.847          44.800    22422133.934    87989271.780          49.100  
G06  21976908.898   115489449.511          45.400    21976910.945    89991842.972          46.800    21976911.625    89991823.730          46.100    21976910.762    86242167.246          50.800  
G01  23878225.195   125481095.007          36.600    23878228.488    97777583.123          20.600    23878228.184    97777527.856          38.400    23878227.035    93703473.572          45.700  
J07  37283204.141   195924590.317          39.000    37283204.387   195924584.555          42.300    37283198.758   195924614.530          45.400    37283203.324   152668513.866          47.800    37283206.270   146307326.733          52.000  
J01  37091105.516   194915159.000          44.200    37091106.055   194915127.250          47.700    37091103.348   194915109.487          44.600    37091104.230   151881928.558          45.800    37091107.238   145553516.938          50.300  
J02  37496160.000   197043669.273          37.600    37496159.453   197043653.524          41.600    37496155.648   197043635.874          38.800    37496159.145   153540510.986          38.900    37496161.906   147142991.027          45.100  
J03  38337753.742   201466303.959          47.600    38337753.910   201466292.201          51.500    38337750.289   201466271.840          50.300    38337753.086   156986726.122          52.500    38337756.109   150445613.030          55.200  
G19  20553737.531   108010650.268          47.400    20553734.613    84164165.402          41.700                                                                                                  
G02  25209204.352   132475279.716          31.600    25209203.113   103227486.250          15.600                                                                                                  
G14  23159781.648   121705525.508          40.200    23159780.609    94835472.490          26.800    23159781.316    94835463.209          41.700    23159784.914    90883986.897          46.800  
G22  24488212.070   128686493.957          37.400    24488208.938   100275214.809          21.100                                                                                                  
E01  27665422.047   145382778.754          37.200    27665420.438   111397196.895          41.900    27665420.809   108565062.518          42.500    27665421.070   109981131.303          46.200  
E26  26337433.539   138404151.927          39.000    26337433.094   106049935.534          42.700    26337433.836   103353751.245          42.700    26337434.488   104701843.496          46.900  
E03  25797111.438   135564763.312          44.000    25797110.496   103874307.177          47.400    25797110.496   101233438.246          47.200    25797111.043   102553874.810          50.900  
E07  27137615.422   142609128.819          39.800    27137614.680   109271929.709          42.400    27137614.258   106493829.264          41.600    27137615.234   107882880.082          46.300  
E21  26281948.602   138112596.055          41.800    26281947.367   105826541.247          45.700    26281947.867   103136039.131          45.300    26281948.293   104481292.295          48.900  
E13  23763422.898   124877667.333          48.200    23763420.648    95685495.221          52.900    23763421.031    93252814.741          52.800    23763421.566    94469155.080          55.900  
E08  22698287.258   119280323.249          48.000    22698284.609    91396609.484          51.000    22698284.512    89072969.901          50.800    22698285.191    90234791.795          54.300  
E27  27338655.977   143665635.281          37.800    27338654.695   110081469.313          42.100    27338655.453   107282789.206          42.500    27338655.551   108682129.364          46.000  
E15  24773339.758   130184865.286          45.800    24773339.203    99752082.291          49.300    24773339.582    97216015.632          50.100    24773340.047    98484052.063          53.500  
> 2021 03 19 12 00 05.0000000  0 24                     
G17  20346769.969   106923087.048          50.000    20346769.801    83316683.453          56.100    20346769.543    83316673.212          51.400                                                  
G03  21931061.063   115248549.534          45.400    21931062.949    89804126.011          36.400    21931063.223    89804101.764          46.700    21931063.473    86062268.283          52.600  
G09  22652135.891   119037813.406          42.200    22652137.715    92756739.261          32.000    22652137.313    92756727.024          44.800    22652137.184    88891865.887          49.000  
G28  22458984.070   118022796.468          42.000    22458983.531    91965826.219          29.500                                                                                                  
G04  22421925.703   117828066.427          43.200    22421926.566    91814062.074          30.400    22421926.375    91814053.814          45.100    22421929.277    87988468.671          49.100  
G06  21976594.383   115487798.285          44.800    21976596.648    89990556.308          47.100    21976597.141    89990537.058          46.600    21976596.488    86240934.177          50.900  
G01  23878716.141   125483673.743          36.600    23878719.047    97779592.526          21.100    23878718.910    97779537.281          38.600    23878717.969    93705399.251          46.100  
J07  37283204.805   195924591.726          38.600    37283204.496   195924585.989          42.400    37283199.133   195924615.939          45.600    37283204.016   152668514.989          47.700    37283206.641   146307327.799          52.100  
J01  37091136.125   194915320.053          44.200    37091136.629   194915288.314          47.700    37091133.723   194915270.539          44.700    37091134.727   151882054.048          46.000    37091138.000   145553637.207          50.400  
J02  37496257.289   197044180.878          37.800    37496256.918   197044165.124          41.600    37496253.082   197044147.479          38.900    37496256.594   153540909.608          38.700    37496259.195   147143373.033          45.100  
J03  38337633.188   201465671.318          47.600    38337633.594   201465659.567          51.500    38337629.703   201465639.205          49.900    38337632.984   156986233.163          52.300    38337635.750   150445140.619          55.400  
G19  20553406.969   108008915.492          47.200    20553404.617    84162813.629          41.400                                                                                                  
G02  25208799.734   132473154.993          30.800    25208798.871   103225830.709          16.300                                                                                                  
G14  23160394.180   121708746.454          40.000    23160393.480    94837982.319          26.700    23160394.215    94837973.057          41.900    23160397.934    90886392.151          46.600  
G22  24488826.445   128689722.530          37.400    24488823.238   100277730.580          21.300                                                                                                  
E01  27665329.742   145382296.106          37.400    27665328.465   111396827.084          41.900    27665329.016   108564702.127          42.000    27665329.234   109980766.205          46.100  
E26  26337079.148   138402287.219          39.200    26337078.297   106048506.715          42.800    26337079.242   103352358.754          42.600    26337079.621   104700432.844          46.800  
E03  25797291.891   135565711.603          44.200    25797290.828   103875033.794          47.400    25797290.941   101234146.375          47.100    25797291.516   102554592.187          51.100  
E07  27137035.031   142606078.205          40.000    27137034.168   109269592.219          42.100    27137033.672   106491551.214          41.700    27137034.738   107880572.331          46.200  
E21  26282267.977   138114274.275          42.200    26282266.711   105827827.154          45.500    26282267.297   103137292.348          45.200    26282267.660   104482561.855          48.700  
E13  23763305.305   124877049.208          48.400    23763303.012    95685021.595          52.800    23763303.434    93252353.156          52.600    23763303.934    94468687.478          56.100  
E08  22697964.859   119278628.740          48.000    22697962.137    91395311.087          50.900    22697962.051    89071704.513          50.900    22697962.727    90233509.904          54.300  
E27  27339192.000   143668452.454          38.200    27339190.594   110083627.927          42.300    27339191.449   107284892.950          42.600    27339191.648   108684260.543          46.400  
E15  24773557.305   130186008.193          45.600    24773556.727    99752958.034          49.700    24773556.969    97216869.118          50.200    24773557.512    98484916.679          53.900  
> 2021 03 19 12 00 06.0000000  0 24                     
G17  20346685.281   106922640.489          50.200    20346684.820    83316335.486          56.500    20346684.617    83316325.244          51.200                                                  
G03  21931578.734   115251270.114          45.400    21931580.594    89806245.933          36.400    21931580.770    89806221.691          46.700    21931581.207    86064299.881          52.300  
G09  22651615.023   119035077.773          41.600    22651617.117    92754607.600          32.000    22651616.949    92754595.368          44.700    22651616.547    88889823.040          49.300  
G28  22459485.383   118025431.028          41.600    22459484.871    91967879.128          29.300                                                                                                  
G04  22421721.281   117826991.501          43.200    22421722.004    91813224.475          30.700    22421721.848    91813216.203          45.000    22421724.668    87987665.980          49.200  
G06  21976280.273   115486147.156          44.400    21976282.438    89989269.713          47.100    21976283.023    89989250.473          46.700    21976282.336    86239701.201          51.100  
G01  23879206.945   125486252.514          37.000    23879209.723    97781601.946          20.600    23879209.855    97781546.716          38.700    23879208.516    93707324.955          45.800  
J07  37283204.578   195924593.139          39.200    37283205.020   195924587.397          42.500    37283199.383   195924617.353          45.700    37283203.867   152668516.090          47.900    37283206.828   146307328.852          52.100  
J01  37091167.203   194915481.199          44.200    37091167.305   194915449.443          47.800    37091164.402   194915431.685          44.700    37091165.293   151882179.603          45.700    37091168.543   145553757.534          50.500  
J02  37496354.594   197044692.455          37.800    37496354.305   197044676.704          41.800    37496350.313   197044659.049          38.100    37496354.063   153541308.241          39.100    37496356.523   147143755.076          45.400  
J03  38337513.453   201465038.643          47.600    38337513.344   201465026.892          51.500    38337509.504   201465006.523          49.500    38337512.371   156985740.169          52.300    38337515.309   150444668.157          55.200  
G19  20553077.148   108007181.131          47.200    20553074.492    84161462.182          41.600                                                                                                  
G02  25208395.766   132471030.314          31.600    25208394.527   103224175.181          15.600                                                                                                  
G14  23161006.641   121711967.532          40.000    23161006.605    94840492.241          27.600    23161006.742    94840482.985          42.300    23161010.770    90888797.504          46.700  
G22  24489440.859   128692951.139          37.400    24489437.582   100280246.386          21.100                                                                                                  
E01  27665238.219   145381813.947          37.600    27665237.012   111396457.636          41.700    27665237.211   108564342.069          42.100    27665237.445   109980401.464          46.300  
E26  26336723.867   138400422.437          39.600    26336723.703   106047077.864          42.700    26336724.246   103350966.237          42.700    26336724.801   104699022.155          46.900  
E03  25797472.328   135566660.328          43.800    25797471.406   103875760.737          47.400    25797471.484   101234854.840          47.000    25797472.039   102555309.895          50.900  
E07  27136454.461   142603027.633          39.800    27136453.590   109267254.798          42.100    27136453.090   106489273.201          41.400    27136454.246   107878264.599          46.100  
E21  26282587.344   138115952.831          42.200    26282586.156   105829113.313          45.900    26282586.660   103138545.789          44.600    26282587.055   104483831.658          49.000  
E13  23763187.750   124876431.159          48.000    23763185.328    95684548.022          52.600    23763185.809    93251891.632          53.100    23763186.332    94468219.928          56.500  
E08  22697642.289   119276934.573          48.200    22697639.727    91394012.974          51.200    22697639.648    89070439.402          50.600    22697640.340    90232228.287          54.400  
E27  27339728.063   143671269.565          38.200    27339726.785   110085786.497          42.300    27339727.398   107286996.604          42.700    27339727.715   108686391.661          46.300  
E15  24773774.734   130187151.201          45.800    24773774.203    99753833.834          49.700    24773774.539    97217722.651          50.200    24773775.023    98485781.346          53.800  
> 2021 03 19 12 00 07.0000000  0 24                     
G17  20346600.563   106922194.386          50.800    20346599.957    83315987.876          56.400    20346599.758    83315977.635          51.000                                                  
G03  21932096.578   115253990.966          45.000    21932098.355    89808366.086          36.000    21932098.941    89808341.839          46.500    21932099.012    86066331.689          52.100  
G09  22651094.547   119032342.453          41.600    22651096.418    92752476.176          32.000    22651096.195    92752463.937          44.800    22651096.105    88887780.440          49.000  
G28  22459986.859   118028065.845          41.800    22459986.313    91969932.239          29.100                                                                                                  
G04  22421516.742   117825917.121          42.800    22421517.418    91812387.294          30.500    22421517.004    91812379.039          44.900    22421520.109    87986863.684          48.900  
G06  21975965.930   115484496.174          44.400    21975968.344    89987983.233          46.800    21975968.691    89987963.981          46.100    21975968.176    86238468.319          51.100  
G01  23879697.359   125488831.305          36.600    23879700.656    97783611.392          21.300    23879700.754    97783556.151          38.200    23879699.309    93709250.679          45.800  
J07  37283205.156   195924594.516          39.400    37283205.012   195924588.794          42.400    37283199.742   195924618.737          45.900    37283204.238   152668517.165          47.900    37283207.230   146307329.887          52.000  
J01  37091197.750   194915642.384          43.800    37091198.070   194915610.634          47.800    37091195.234   194915592.870          44.200    37091196.160   151882305.226          46.000    37091199.184   145553877.907          50.200  
J02  37496452.203   197045203.996          37.000    37496451.633   197045188.257          41.700    37496447.789   197045170.598          38.000    37496451.039   153541706.857          39.100    37496453.906   147144137.084          44.900  
J03  38337392.641   201464405.917          47.600    38337392.801   201464394.159          51.700    38337388.762   201464373.798          49.400    38337391.887   156985247.132          52.400    38337394.941   150444195.665          55.300  
G19  20552747.492   108005447.197          47.000    20552744.531    84160111.062          41.800                                                                                                  
G02  25207992.000   132468905.569          30.600    25207990.223   103222519.457          16.300                                                                                                  
G14  23161620.359   121715188.751          40.000    23161619.621    94843002.282          28.100    23161619.988    94842993.041          41.800    23161623.938    90891202.971          46.700  
G22  24490054.711   128696179.730          37.800    24490051.848   100282762.176          21.300                                                                                                  
E01  27665146.406   145381332.201          37.800    27665145.316   111396088.501          42.200    27665145.719   108563982.320          41.900    27665145.809   109980037.014          46.400  
E26  26336369.086   138398557.648          39.600    26336368.570   106045648.996          43.000    26336369.324   103349573.688          43.000    26336369.934   104697611.443          46.900  
E03  25797652.930   135567609.475          44.000    25797652.082   103876488.008          47.600    25797652.172   101235563.624          46.800    25797652.664   102556027.925          50.900  
E07  27135873.953   142599977.071          39.600    27135873.223   109264917.343          42.000    27135872.719   106486995.161          41.600    27135873.730   107875956.848          46.300  
E21  26282906.867   138117631.653          42.000    26282905.609   105830399.703          46.000    26282906.078   103139799.469          45.000    26282906.559   104485101.688          49.500  
E13  23763070.180   124875813.168          48.200    23763067.855    95684074.498          52.900    23763068.070    93251430.140          53.200    23763068.738    94467752.418          56.400  
E08  22697320.258   119275240.796          48.600    22697317.402    91392715.126          51.400    22697317.293    89069174.541          51.000    22697318.020    90230946.941          54.700  
E27  27340264.281   143674086.604          38.000    27340262.730   110087944.991          42.300    27340263.551   107289100.268          42.700    27340263.801   108688522.744          46.200  
E15  24773992.367   130188294.275          46.000    24773991.777    99754709.712          49.600    24773992.145    97218576.256          50.000    24773992.555    98486646.085          53.700  
> 2021 03 19 12 00 08.0000000  0 24                     
G17  20346515.625   106921748.798          51.000    20346515.164    83315640.662          55.900    20346514.891    83315630.421          50.600                                                  
G03  21932614.016   115256712.143          45.000    21932616.234    89810486.483          36.300    21932616.320    89810462.221          46.500    21932616.762    86068363.734          52.100  
G09  22650574.406   119029607.477          41.600    22650576.098    92750345.033          31.200    22650575.805    92750332.780          44.600    22650575.598    88885738.073          49.000  
G28  22460488.320   118030700.986          41.400    22460487.652    91971985.581          28.700                                                                                                  
G04  22421312.500   117824843.344          42.800    22421313.234    91811550.578          30.500    22421313.176    91811542.339          44.600    22421315.738    87986061.830          49.000  
G06  21975652.250   115482845.336          44.200    21975654.184    89986696.872          46.700    21975654.801    89986677.626          46.300    21975654.098    86237235.554          50.900  
G01  23880188.328   125491410.139          37.400    23880191.313    97785620.897          20.400    23880191.488    97785565.648          38.400    23880190.000    93711176.424          45.900  
J07  37283205.977   195924595.962          38.800    37283205.289   195924590.232          42.300    37283200.246   195924620.176          45.900    37283204.297   152668518.272          47.700    37283207.328   146307330.951          51.500  
J01  37091228.273   194915803.719          43.800    37091228.910   194915771.957          47.700    37091225.922   194915754.206          44.200    37091227.105   151882430.922          45.500    37091229.895   145553998.382          50.500  
J02  37496548.547   197045715.627          37.200    37496549.109   197045699.861          41.600    37496545.332   197045682.228          38.100    37496548.547   153542105.534          39.200    37496551.168   147144519.140          44.600  
J03  38337272.516   201463773.186          47.400    38337272.633   201463761.442          51.500    38337268.230   201463741.066          49.500    38337271.547   156984754.094          52.400    38337274.520   150443723.171          55.200  
G19  20552417.547   108003713.778          46.800    20552414.727    84158760.345          41.300                                                                                                  
G02  25207587.516   132466780.838          31.400    25207585.875   103220863.791          16.300                                                                                                  
G14  23162233.180   121718410.150          40.600    23162232.715    94845512.464          26.200    23162233.180    94845503.229          41.900    23162236.852    90893608.574          47.000  
G22  24490669.305   128699408.384          37.400    24490666.215   100285278.000          21.300                                                                                                  
E01  27665055.055   145380850.968          37.800    27665053.730   111395719.753          42.500    27665053.945   108563622.963          41.700    27665054.227   109979672.965          46.000  
E26  26336014.547   138396692.831          39.200    26336013.656   106044220.114          42.800    26336014.469   103348181.126          42.700    26336015.090   104696200.732          46.500  
E03  25797833.586   135568559.092          44.000    25797832.758   103877215.632          47.500    25797832.789   101236272.748          47.000    25797833.371   102556746.292          51.300  
E07  27135293.797   142596926.576          39.800    27135292.645   109262579.930          42.400    27135292.012   106484717.178          41.600    27135293.207   107873649.153          45.800  
E21  26283226.516   138119310.873          42.200    26283225.066   105831686.370          46.100    26283225.664   103141053.443          44.900    26283226.105   104486372.011          49.300  
E13  23762952.398   124875195.304          48.000    23762950.262    95683601.058          52.700    23762950.559    93250968.740          53.000    23762951.141    94467285.005          56.100  
E08  22696998.039   119273547.399          48.600    22696995.258    91391417.606          51.400    22696995.020    89067910.012          50.700    22696995.770    90229665.909          54.800  
E27  27340800.375   143676903.666          38.000    27340798.910   110090103.522          42.100    27340799.555   107291203.905          43.100    27340799.863   108690653.818          46.600  
E15  24774209.836   130189437.504          46.000    24774209.375    99755585.680          49.800    24774209.543    97219429.954          50.100    24774210.078    98487510.919          53.500  
> 2021 03 19 12 00 09.0000000  0 24                     
G17  20346431.164   106921303.710          50.400    20346430.461    83315293.840          55.700    20346430.289    83315283.592          50.800                                                  
G03  21933131.883   115259433.621          44.600    21933134.180    89812607.111          36.200    21933134.340    89812582.871          46.900    21933134.707    86070396.008          52.100  
G09  22650054.242   119026872.821          42.000    22650055.785    92748214.131          30.500    22650055.395    92748201.880          44.600    22650055.172    88883695.963          49.000  
G28  22460990.078   118033336.441          41.400    22460989.195    91974039.187          28.100                                                                                                  
G04  22421108.008   117823770.146          43.000    22421109.176    91810714.318          31.000    22421109.285    91810706.079          44.700    22421111.594    87985260.428          48.900  
G06  21975337.813   115481194.654          44.200    21975340.121    89985410.629          46.700    21975340.453    89985391.368          46.600    21975339.984    86236002.900          51.200  
G01  23880679.141   125493989.054          36.800    23880682.055    97787630.399          20.600    23880681.914    97787575.166          38.600    23880680.801    93713102.220          46.000  
J07  37283206.047   195924597.400          38.400    37283205.754   195924591.663          42.200    37283200.152   195924621.621          46.400    37283204.809   152668519.399          47.500    37283207.773   146307332.030          51.800  
J01  37091259.414   194915965.133          43.800    37091259.535   194915933.398          47.800    37091256.664   194915915.619          43.600    37091257.488   151882556.711          45.800    37091260.613   145554118.922          50.300  
J02  37496645.828   197046227.254          37.600    37496646.445   197046211.519          41.700    37496642.688   197046193.848          38.000    37496646.129   153542504.223          39.200    37496648.594   147144901.203          44.800  
J03  38337151.992   201463140.439          47.800    38337152.109   201463128.688          51.500    38337148.254   201463108.319          49.300    38337151.344   156984261.046          52.500    38337154.129   150443250.661          55.300  
G19  20552087.797   108001980.812          47.200    20552084.910    84157409.982          41.600                                                                                                  
G02  25207183.148   132464656.209          30.600    25207181.836   103219208.310          16.300                                                                                                  
G14  23162846.664   121721631.736          40.400    23162846.055    94848022.797          26.900    23162845.754    94848013.542          42.100    23162849.859    90896014.292          47.000  
G22  24491283.883   128702637.101          37.400    24491280.648   100287793.885          20.900                                                                                                  
E01  27664963.477   145380370.197          38.200    27664962.082   111395351.397          42.300    27664962.516   108563263.933          41.900    27664962.730   109979309.265          45.900  
E26  26335659.594   138394828.005          39.200    26335658.797   106042791.240          42.600    26335659.492   103346788.567          43.100    26335660.219   104694790.011          46.500  
E03  25798014.695   135569509.181          44.200    25798013.637   103877943.621          47.100    25798013.598   101236982.228          47.100    25798014.137   102557465.034          50.800  
E07  27134712.930   142593876.074          39.800    27134712.332   109260242.539          42.400    27134711.688   106482439.223          41.500    27134712.746   107871341.487          45.900  
E21  26283545.953   138120990.439          42.000    26283544.719   105832973.303          46.000    26283545.199   103142307.656          45.700    26283545.695   104487642.580          49.500  
E13  23762835.000   124874577.517          48.000    23762832.719    95683127.695          53.000    23762833.035    93250507.417          53.000    23762833.602    94466817.656          56.400  
E08  22696675.656   119271854.420          48.600    22696673.043    91390120.384          51.700    22696672.953    89066645.767          50.300    22696673.609    90228385.178          54.600  
E27  27341336.289   143679720.682          38.200    27341334.992   110092262.021          42.300    27341335.598   107293307.520          43.000    27341335.926   108692784.875          46.500  
E15  24774427.422   130190580.841          45.600    24774426.887    99756461.749          49.600    24774427.273    97220283.751          50.300    24774427.664    98488375.855          53.500  
> 2021 03 19 12 00 10.0000000  0 24                     
G17  20346346.445   106920859.062          50.600    20346345.797    83314947.365          55.900    20346345.668    83314937.117          50.800                                                  
G03  21933650.313   115262155.360          44.800    21933652.117    89814727.952          36.300    21933652.508    89814703.712          46.600    21933652.586    86072428.482          52.100  
G09  22649533.453   119024138.431          41.600    22649535.625    92746083.434          31.500    22649535.188    92746071.204          44.900    22649534.863    88881654.053          49.100  
G28  22461491.148   118035972.123          41.400    22461490.723    91976092.961          28.700                                                                                                  
G04  22420904.133   117822697.473          43.000    22420904.902    91809878.473          30.600    22420904.688    91809870.224          45.100    22420907.375    87984459.402          49.100  
G06  21975024.000   115479544.084          43.800    21975025.914    89984124.464          46.800    21975026.496    89984105.205          46.600    21975025.930    86234770.318          51.300  
G01  23881169.656   125496567.957          36.600    23881172.852    97789639.964          20.900    23881173.000    97789584.685          38.600    23881171.500    93715028.003          46.100  
J07  37283206.070   195924598.775          38.600    37283205.820   195924593.060          42.300    37283200.336   195924622.988          45.700    37283204.957   152668520.492          47.500    37283207.984   146307333.064          51.900  
J01  37091289.734   194916126.611          43.800    37091290.090   194916094.861          47.900    37091287.375   194916077.098          43.800    37091288.438   151882682.550          46.000    37091291.461   145554239.506          50.500  
J02  37496743.703   197046738.882          37.600    37496743.543   197046723.123          41.600    37496740.176   197046705.475          38.000    37496743.230   153542902.858          39.000    37496745.855   147145283.243          44.700  
J03  38337031.430   201462507.619          47.800    38337031.832   201462495.875          51.500    38337027.738   201462475.500          49.300    38337030.859   156983767.944          52.300    38337033.707   150442778.113          55.200  
G19  20551757.992   108000248.274          47.200    20551755.211    84156059.953          41.300                                                                                                  
G02  25206779.609   132462531.433          31.400    25206777.438   103217552.544          14.800                                                                                                  
G14  23163459.492   121724853.478          39.800    23163458.996    94850533.241          27.300    23163459.145    94850523.974          42.100    23163462.949    90898420.111          47.100  
G22  24491898.227   128705865.747          37.400    24491894.844   100290309.712          21.300                                                                                                  
E01  27664871.984   145379889.846          38.000    27664870.785   111394983.317          42.700    27664871.152   108562905.228          41.700    27664871.332   109978945.876          45.700  
E26  26335304.617   138392963.158          39.000    26335304.070   106041362.315          42.900    26335304.645   103345395.969          43.300    26335305.352   104693379.243          46.500  
E03  25798195.461   135570459.642          44.000    25798194.414   103878671.908          47.100    25798194.445   101237692.015          47.300    25798195.031   102558184.066          50.600  
E07  27134132.617   142590825.589          40.400    27134131.605   109257905.138          42.100    27134131.070   106480161.244          41.500    27134132.273   107869033.798          45.800  
E21  26283865.664   138122670.281          41.800    26283864.473   105834260.470          46.000    26283864.738   103143562.093          45.500    26283865.352   104488913.385          49.400  
E13  23762717.477   124873959.771          48.600    23762715.223    95682654.364          52.800    23762715.449    93250046.116          52.800    23762716.039    94466350.340          56.500  
E08  22696353.781   119270161.777          48.200    22696350.945    91388823.421          51.600    22696350.855    89065381.781          50.500    22696351.520    90227104.704          54.600  
E27  27341872.266   143682537.605          38.000    27341871.105   110094420.459          42.200    27341871.699   107295411.096          43.000    27341871.969   108694915.878          46.300  
E15  24774644.961   130191724.241          46.000    24774644.492    99757337.861          49.400    24774644.844    97221137.595          50.200    24774645.246    98489240.830          53.400  
> 2021 03 19 12 00 11.0000000  0 24                     
G17  20346262.109   106920414.910          50.800    20346261.273    83314601.271          56.200    20346260.988    83314591.023          50.900                                                  
G03  21934167.820   115264877.396          44.600    21934170.152    89816849.016          36.500    21934169.879    89816824.775          46.700    21934170.621    86074461.170          52.300  
G09  22649012.875   119021404.366          41.600    22649015.305    92743953.001          32.200    22649014.598    92743940.760          44.900    22649014.641    88879612.382          49.100  
G28  22461992.813   118038608.123          41.400    22461992.504    91978146.992          28.700                                                                                                  
G04  22420699.852   117821625.383          42.400    22420700.914    91809043.074          30.800    22420700.441    91809034.825          45.200    22420703.387    87983658.801          49.100  
G06  21974709.570   115477893.648          44.000    21974711.977    89982838.412          46.900    21974712.297    89982819.147          46.700    21974711.836    86233537.857          51.300  
G01  23881660.586   125499146.840          37.000    23881663.621    97791649.471          20.100    23881664.012    97791594.236          38.400    23881662.258    93716953.841          46.300  
J07  37283206.617   195924600.199          38.800    37283206.371   195924594.460          42.100    37283200.488   195924624.418          45.600    37283205.465   152668521.600          47.600    37283208.250   146307334.126          52.000  
J01  37091320.547   194916288.204          44.200    37091320.813   194916256.446          47.800    37091318.363   194916238.691          44.100    37091318.957   151882808.447          45.900    37091322.141   145554360.175          50.600  
J02  37496841.336   197047250.512          38.000    37496840.996   197047234.757          41.600    37496837.168   197047217.113          38.100    37496840.742   153543301.542          38.900    37496843.273   147145665.307          44.500  
J03  38336910.797   201461874.781          47.600    38336911.160   201461863.038          51.500    38336907.355   201461842.669          49.400    38336910.230   156983274.820          52.300    38336913.285   150442305.537          55.200  
G19  20551428.578   107998516.223          47.000    20551425.664    84154710.303          41.500                                                                                                  
G02  25206374.906   132460406.807          31.400    25206372.820   103215897.049          14.800                                                                                                  
