     3.04           OBSERVATION DATA    M                   RINEX VERSION / TYPE
sbf2rin-13.8.0                          20210321 012128 UTC PGM / RUN BY / DATE
SEPT                                                        MARKER NAME
Unknown                                                     MARKER NUMBER
Unknown             Unknown                                 OBSERVER / AGENCY
Unknown             Unknown             Unknown             REC # / TYPE / VERS
Unknown             Unknown                                 ANT # / TYPE
 -3962108.4557  3381308.8777  3668678.1749                  APPROX POSITION XYZ
        0.0000        0.0000        0.0000                  ANTENNA: DELTA H/E/N
G   14 C1C L1C S1C C1W S1W C2W L2W S2W C2L L2L S2L C5Q L5Q  SYS / # / OBS TYPES
       S5Q                                                  SYS / # / OBS TYPES
E   12 C1C L1C S1C C5Q L5Q S5Q C7Q L7Q S7Q C8Q L8Q S8Q      SYS / # / OBS TYPES
J    9 C1C L1C S1C C2L L2L S2L C5Q L5Q S5Q                  SYS / # / OBS TYPES
SEPTENTRIO RECEIVERS OUTPUT ALIGNED CARRIER PHASES.         COMMENT
NO FURTHER PHASE SHIFT APPLIED IN THE RINEX ENCODER.        COMMENT
G L1C                                                       SYS / PHASE SHIFT
G L2W                                                       SYS / PHASE SHIFT
G L2L  0.00000                                              SYS / PHASE SHIFT
G L5Q  0.00000                                              SYS / PHASE SHIFT
E L1C  0.00000                                              SYS / PHASE SHIFT
E L5Q  0.00000                                              SYS / PHASE SHIFT
E L7Q  0.00000                                              SYS / PHASE SHIFT
E L8Q  0.00000                                              SYS / PHASE SHIFT
J L1C                                                       SYS / PHASE SHIFT
J L2L  0.00000                                              SYS / PHASE SHIFT
J L5Q  0.00000                                              SYS / PHASE SHIFT
     1.000                                                  INTERVAL
  2021     3    19    12     0    0.0000000     GPS         TIME OF FIRST OBS
  2021     3    19    12     0   59.0000000     GPS         TIME OF LAST OBS
    63                                                      # OF SATELLITES
DBHZ                                                        SIGNAL STRENGTH UNIT
                                                            END OF HEADER
> 2021 03 19 12 00  0.0000000  0 23
E01  27530612.397 5 144674360.16505        35.844    27530614.399 6 108036055.09606        37.344    27530613.464 6 110854383.75806        37.469    27530613.943 6 109445218.97106        40.406
E03  25653954.884 7 134812488.32507        42.500    25653957.032 7 100671683.93207        42.125    25653956.234 7 103297892.67307        42.031    25653956.607 7 101984789.34407        45.031
E07  27003277.434 6 141903221.24606        36.813    27003279.788 6 105966721.79006        37.500    27003279.242 6 108731067.80606        37.438    27003279.359 6 107348899.84206        40.469
E08  22559453.167 7 118550752.90307        45.406    22559453.961 7  88528178.55807        45.375    22559452.897 7  90837602.44907        45.375    22559453.372 8  89682890.54508        48.406
E13  23625804.227 8 124154658.02508        48.094    23625805.377 7  92713006.18107        47.188    23625804.647 7  95131608.36407        47.688    23625804.984 8  93922319.81408        50.469
E15  24630352.011 7 129433596.87807        43.594    24630354.943 7  96655103.38307        44.188    24630353.799 7  99176518.09307        43.750    24630354.286 7  97915812.28007        46.969
E21  26147195.107 6 137404470.93306        39.469    26147197.220 6 102607252.87206        40.781    26147196.315 6 105283957.00506        40.063    26147196.817 7 103945607.98207        43.438
E26  26204588.624 5 137706054.61405        35.313    26204592.174 6 102832458.50606        38.500    26204591.580 6 105515041.21406        38.875    26204591.778 6 104173749.40206        41.750
E27  27201779.518 5 142946342.60905        35.250    27201782.250 5 106745679.81205        35.469    27201780.986 5 109530343.68305        34.531    27201781.623 6 108138012.29106        38.063
G01  23733056.453 6 124718238.44206        36.125    23733056.096 2        14.375    23733058.476 2  97183098.32502        14.375    23733057.679 5  97182951.33105        31.781    23733056.336 6  93133931.15606        39.188
G03  21786888.348 7 114490948.28907        44.875    21786888.232 5        30.563    21786889.546 5  89213742.80405        30.563    21786889.223 6  89213728.81306        39.000    21786888.593 7  85496542.32807        46.281
G04  22280835.459 7 117086597.10107        42.469    22280835.173 4        25.031    22280834.680 4  91236319.41304        25.031    22280835.240 6  91236320.41106        37.000    22280838.270 7  87434816.33907        43.344
G06  21842854.252 7 114785031.86207        44.844    21842854.069 6        41.656    21842855.216 6  89442909.16406        41.656    21842856.117 6  89442874.18606        38.063    21842855.452 7  85716149.32007        45.438
G09  22514865.034 7 118316425.44007        42.313    22514864.471 4        25.625    22514864.980 4  92194634.82104        25.625    22514865.014 6  92194611.85206        36.656    22514864.877 7  88353189.13807        44.000
G14  23022112.421 6 120982046.76706        41.000    23022112.189 3        21.875    23022111.994 3  94271736.44103        21.875    23022111.249 6  94271737.44206        36.125    23022115.322 7  90343759.34207        42.125
G17  20208901.317 8 106198534.71108        49.063    20208900.817 8        51.313    20208899.065 8  82752114.82108        51.313    20208898.808 7  82752109.83807        43.156
G19  20417831.405 7 107296469.06707        47.781    20417830.140 6        36.719    20417827.448 6  83607643.55506        36.719
G22  24343063.482 6 127923740.29006        38.906    24343062.199 2        15.219    24343059.244 2  99680876.01002        15.219
G28  22321498.453 7 117300301.65107        42.656    22321497.595 3        22.656    22321496.111 3  91402832.61603        22.656
J01  36952979.472 7 194189306.38407        43.750    36952977.992 6 151316288.47006        37.438    36952980.099 7 145011418.56207        45.281
J02  37360078.134 6 196328566.32406        36.063    37360079.007 5 152983280.04305        32.781    37360079.863 6 146608985.73706        38.063
J03  38199917.187 7 200741957.15207        47.688    38199916.938 7 156422321.61507        43.719    38199918.059 8 149904678.79508        49.250
J07  37147194.408 6 195209826.83606        38.750    37147194.125 6 152111547.40606        39.594    37147194.960 7 145773601.89507        45.469
> 2021 03 19 12 00  1.0000000  0 23
E01  27530547.026 5 144674015.82705        35.656    27530548.811 6 108035797.94206        37.375    27530547.835 6 110854119.91606        37.031    27530548.389 6 109444958.47206        40.250
E03  25654161.204 7 134813573.00507        42.438    25654163.453 7 100672493.91907        42.063    25654162.706 7 103298723.79807        42.000    25654163.012 7 101985609.90107        45.000
E07  27002723.226 6 141900308.01006        36.719    27002725.441 6 105964546.32306        37.500    27002724.871 6 108728835.59306        37.531    27002724.998 6 107346696.00706        40.531
E08  22559156.539 7 118549194.17207        45.469    22559157.337 7  88527014.56807        45.438    22559156.298 7  90836408.09107        45.438    22559156.752 8  89681711.37108        48.469
E13  23625712.312 8 124154174.98508        48.188    23625713.478 7  92712645.46907        47.250    23625712.688 7  95131238.24507        47.844    23625713.065 8  93921954.39808        50.531
E15  24630595.460 7 129434876.41207        43.719    24630598.371 7  96656058.88507        44.188    24630597.282 7  99177498.52707        43.844    24630597.774 7  97916780.24807        46.969
E21  26147540.482 6 137406286.84806        39.281    26147542.810 6 102608608.91206        40.688    26147541.868 6 105285348.42606        40.344    26147542.371 7 103946981.71207        43.563
E26  26204259.735 5 137704326.09605        35.594    26204263.172 6 102831167.74606        38.844    26204262.734 6 105513716.78506        38.844    26204262.850 6 104172441.80906        41.906
E27  27202341.837 5 142949297.34905        35.406    27202344.457 5 106747886.25505        35.531    27202343.294 5 109532607.70505        34.313    27202343.916 6 108140247.52806        37.938
G01  23733573.222 6 124720954.59806        36.375    23733572.865 2        15.000    23733575.369 2  97185214.81402        15.000    23733574.541 5  97185067.79805        31.594    23733573.114 6  93135959.44606        39.281
G03  21787431.727 7 114493803.54407        45.063    21787431.611 5        30.625    21787432.879 5  89215967.67805        30.625    21787432.507 6  89215953.69406        39.156    21787431.951 7  85498674.50207        46.281
G04  22280656.629 7 117085656.70607        42.594    22280656.348 4        25.063    22280655.712 4  91235586.63704        25.063    22280656.142 6  91235587.63206        36.875    22280659.265 7  87434114.09007        43.563
G06  21842565.469 7 114783514.98707        44.906    21842565.286 6        41.688    21842566.572 6  89441727.18506        41.688    21842567.243 6  89441692.20106        37.906    21842566.763 7  85715016.59107        45.344
G09  22514369.968 7 118313824.82707        42.250    22514369.405 4        25.688    22514370.119 4  92192608.37004        25.688    22514369.976 6  92192585.41706        36.500    22514369.971 7  88351247.11507        44.000
G14  23022751.419 6 120985404.64806        40.969    23022751.183 3        21.906    23022751.015 3  94274352.96703        21.906    23022750.329 6  94274353.97806        36.125    23022754.315 7  90346266.86107        42.156
G17  20208842.015 8 106198223.17308        49.219    20208841.515 8        51.313    20208839.775 8  82751872.06308        51.313    20208839.601 7  82751867.07007        43.156
G19  20417526.991 7 107294869.21507        47.813    20417525.726 6        36.719    20417522.998 6  83606396.91806        36.719
G22  24343704.188 6 127927105.70806        39.031    24343702.914 2        15.563    24343699.684 2  99683498.42402        15.563
G28  22322025.701 7 117303072.74707        42.844    22322024.843 3        22.625    22322023.490 3  91404991.91303        22.625
J01  36953036.322 7 194189605.34207        43.813    36953034.753 6 151316521.41306        37.531    36953037.042 7 145011641.81707        45.188
J02  37360201.738 6 196329215.79306        36.094    37360202.419 5 152983786.12805        32.344    37360203.445 6 146609470.75606        38.156
J03  38199823.197 7 200741462.97407        47.656    38199822.793 7 156421936.55407        43.813    38199824.071 8 149904309.77208        49.219
J07  37147221.086 6 195209966.28906        38.969    37147220.599 6 152111656.06806        39.625    37147221.429 7 145773706.01607        45.469
> 2021 03 19 12 00  2.0000000  0 23
E01  27530481.469 5 144673671.66305        35.750    27530483.353 6 108035540.95006        37.406    27530482.388 6 110853856.21206        37.469    27530482.911 6 109444698.12506        40.469
E03  25654367.634 7 134814657.90007        42.531    25654369.872 7 100673304.07607        42.188    25654369.222 7 103299555.07007        42.031    25654369.449 7 101986430.61507        45.063
E07  27002168.766 6 141897394.57806        36.969    27002170.969 6 105962370.71606        37.625    27002170.431 6 108726603.21606        37.469    27002170.584 6 107344492.01106        40.531
E08  22558859.975 7 118547635.57607        45.406    22558860.735 7  88525850.68207        45.438    22558859.712 7  90835213.85007        45.438    22558860.167 8  89680532.30808        48.469
E13  23625620.416 8 124153691.79108        48.156    23625621.554 7  92712284.64607        47.188    23625620.756 7  95130868.00507        47.875    23625621.124 8  93921588.86708        50.531
E15  24630838.866 7 129436155.82607        43.625    24630841.888 7  96657014.28207        44.156    24630840.677 7  99178478.85307        43.906    24630841.232 7  97917748.10907        47.000
E21  26147886.081 6 137408102.87206        39.281    26147888.410 6 102609965.04006        40.688    26147887.456 6 105286739.92806        40.188    26147887.965 7 103948355.52707        43.438
E26  26203931.013 5 137702597.33805        35.750    26203934.284 6 102829876.78606        38.406    26203933.745 6 105512392.15406        39.031    26203933.878 6 104171134.01406        41.750
E27  27202903.997 5 142952251.82005        35.406    27202906.773 5 106750092.52805        35.219    27202905.593 5 109534871.50305        34.594    27202906.115 6 108142482.56006        37.969
G01  23734090.134 6 124723670.55606        36.375    23734089.777 2        14.688    23734092.172 2  97187331.14302        14.688    23734090.942 5  97187184.14705        31.719    23734089.879 6  93137987.59706        39.375
G03  21787975.094 7 114496658.85307        45.031    21787974.983 5        30.625    21787976.221 5  89218192.59405        30.625    21787976.087 6  89218178.61306        38.969    21787975.327 7  85500806.71607        46.281
G04  22280477.769 7 117084716.62007        42.438    22280477.488 4        25.000    22280476.821 4  91234854.10404        25.000    22280477.465 6  91234855.11606        36.875    22280480.400 7  87433412.08107        43.531
G06  21842276.867 7 114781998.00707        45.063    21842276.689 6        41.625    21842277.898 6  89440545.12206        41.625    21842278.763 6  89440510.13706        38.063    21842278.115 7  85713883.78907        45.438
G09  22513875.114 7 118311224.29007        42.281    22513874.547 4        25.656    22513875.231 4  92190581.97404        25.656    22513875.296 6  92190559.01306        36.375    22513875.130 7  88349305.16207        44.031
G14  23023390.596 6 120988762.46206        40.781    23023390.360 3        21.781    23023390.033 3  94276969.44703        21.781    23023389.092 6  94276970.46206        36.125    23023393.284 7  90348774.30707        42.188
G17  20208782.767 8 106197911.87108        49.094    20208782.267 8        51.281    20208780.531 8  82751629.48908        51.281    20208780.357 7  82751624.50607        43.125
G19  20417222.650 7 107293269.58407        47.938    20417221.385 6        36.688    20417218.605 6  83605150.45006        36.688
G22  24344344.707 6 127930470.93406        38.813    24344343.429 2        15.563    24344340.114 2  99686120.67702        15.563
G28  22322553.027 7 117305843.88607        42.625    22322552.164 3        22.688    22322550.855 3  91407151.25103        22.688
J01  36953093.180 7 194189904.15607        43.719    36953091.625 6 151316754.25306        37.250    36953093.897 7 145011864.95107        45.188
J02  37360325.192 5 196329865.05905        35.875    37360325.764 5 152984292.04905        32.375    37360326.909 6 146609955.59106        38.094
J03  38199729.161 7 200740968.52507        47.625    38199728.551 7 156421551.25807        43.750    38199729.988 8 149903940.54208        49.219
J07  37147247.729 6 195210105.50906        38.750    37147246.988 6 152111764.52706        39.719    37147247.942 7 145773809.96207        45.500
> 2021 03 19 12 00  3.0000000  0 23
E01  27530416.167 5 144673327.70705        35.875    27530417.938 6 108035284.08106        37.250    27530416.966 6 110853592.65806        37.344    27530417.465 6 109444437.91506        40.313
E03  25654574.125 7 134815742.94607        42.469    25654576.337 7 100674114.33007        42.094    25654575.784 7 103300386.47007        42.063    25654575.931 7 101987251.44307        45.031
E07  27001614.319 6 141894480.89006        36.938    27001616.392 6 105960194.90206        37.375    27001615.850 6 108724370.63706        37.594    27001616.112 6 107342287.81506        40.500
E08  22558563.453 7 118546077.08307        45.594    22558564.126 7  88524686.87007        45.406    22558563.129 7  90834019.66907        45.531    22558563.596 8  89679353.31108        48.469
E13  23625528.478 8 124153208.39408        48.188    23625529.542 7  92711923.66007        47.188    23625528.758 7  95130497.60707        47.906    23625529.134 8  93921223.17508        50.531
E15  24631082.286 7 129437435.05107        43.625    24631085.359 7  96657969.55207        44.094    24631084.060 7  99179459.03507        43.938    24631084.671 7  97918715.83507        47.000
E21  26148231.747 6 137409918.92706        39.531    26148234.000 6 102611321.18906        40.563    26148233.051 6 105288131.46106        40.281    26148233.558 7 103949729.36707        43.438
E26  26203602.024 5 137700868.29705        35.469    26203605.310 6 102828585.60706        38.563    26203604.736 6 105511067.28106        38.906    26203604.842 6 104169825.98706        41.813
E27  27203466.261 5 142955205.93205        35.594    27203468.867 5 106752298.52805        35.031    27203467.862 5 109537135.05905        34.500    27203468.278 6 108144717.33706        37.813
G01  23734606.757 6 124726386.24106        36.313    23734606.404 2        14.406    23734608.900 2  97189447.25802        14.406    23734607.816 5  97189300.27905        31.656    23734606.655 6  93140015.54306        39.125
G03  21788518.461 7 114499514.18107        45.188    21788518.345 5        30.469    21788519.555 5  89220417.52605        30.469    21788519.670 6  89220403.53406        38.750    21788518.636 7  85502938.93507        46.250
G04  22280298.981 7 117083776.81307        42.313    22280298.695 4        25.031    22280297.987 4  91234121.78804        25.031    22280298.613 6  91234122.78406        37.125    22280301.557 7  87432710.27007        43.469
G06  21841988.232 7 114780480.88807        45.031    21841988.049 6        41.531    21841989.201 6  89439362.95406        41.531    21841989.692 6  89439327.95006        38.125    21841989.397 7  85712750.86707        45.438
G09  22513380.142 7 118308623.79907        42.344    22513379.575 4        25.656    22513380.361 4  92188555.61504        25.656    22513380.681 6  92188532.64306        36.188    22513380.287 7  88347363.22407        44.031
G14  23024029.637 6 120992120.14806        40.844    23024029.405 3        21.750    23024028.974 3  94279585.82903        21.750    23024027.962 6  94279586.83206        36.219    23024032.135 7  90351281.67507        42.156
G17  20208723.546 8 106197600.76908        49.031    20208723.046 8        51.188    20208721.327 8  82751387.07308        51.188    20208721.233 7  82751382.09007        43.063
G19  20416918.322 7 107291670.11607        47.906    20416917.057 6        36.594    20416914.244 6  83603904.11306        36.594
G22  24344985.107 6 127933835.89806        38.813    24344983.829 2        15.750    24344980.450 2  99688742.72302        15.750
G28  22323080.402 7 117308615.04107        42.438    22323079.539 3        22.563    22323078.274 3  91409310.59003        22.563
J01  36953149.984 7 194190202.77107        43.719    36953148.758 6 151316986.96506        37.469    36953150.745 7 145012087.94707        45.188
J02  37360448.716 5 196330514.03305        35.906    37360449.557 5 152984797.73605        32.313    37360450.301 6 146610440.21906        38.125
J03  38199635.097 7 200740473.76207        47.625    38199634.531 7 156421165.72907        43.719    38199635.826 8 149903571.07008        49.156
J07  37147274.061 6 195210244.43206        39.031    37147273.384 6 152111872.77506        39.688    37147274.373 7 145773913.69307        45.563
> 2021 03 19 12 00  4.0000000  0 23
E01  27530350.740 5 144672983.98805        35.906    27530352.518 6 108035027.42006        37.219    27530351.588 6 110853329.28306        37.188    27530352.076 6 109444177.89606        40.250
E03  25654780.600 7 134816828.21407        42.531    25654782.806 7 100674924.76307        42.156    25654782.285 6 103301218.04206        41.938    25654782.457 7 101988072.44407        45.031
E07  27001059.747 6 141891566.98806        36.938    27001061.927 6 105958018.92706        37.438    27001061.273 6 108722137.91806        37.469    27001061.639 6 107340083.46906        40.500
E08  22558266.889 7 118544518.74107        45.625    22558267.540 7  88523523.17507        45.375    22558266.575 7  90832825.62007        45.469    22558267.047 8  89678174.44008        48.438
E13  23625436.431 8 124152724.85008        48.188    23625437.513 7  92711562.57607        47.188    23625436.704 7  95130127.10407        47.781    23625437.117 8  93920857.38208        50.500
E15  24631325.582 7 129438714.15407        43.625    24631328.750 7  96658924.72407        44.125    24631327.376 7  99180439.13507        43.906    24631328.084 7  97919683.46907        47.000
E21  26148577.429 6 137411735.13206        39.563    26148579.659 6 102612677.43006        40.688    26148578.613 6 105289523.08106        40.313    26148579.175 7 103951103.29807        43.500
E26  26203272.824 5 137699138.95605        35.438    26203276.225 6 102827294.23606        38.656    26203275.703 6 105509742.23106        39.000    26203275.753 6 104168517.77506        41.906
E27  27204028.384 5 142958159.82705        35.594    27204030.904 5 106754504.35105        35.344    27204029.982 5 109539398.40005        34.438    27204030.393 6 108146951.92006        37.969
G01  23735123.441 6 124729101.76106        36.344    23735123.093 2        14.500    23735125.618 2  97191563.25302        14.500    23735124.147 5  97191416.29805        31.844    23735123.461 6  93142043.35806        39.281
G03  21789061.894 7 114502369.57607        45.094    21789061.783 5        30.500    21789062.879 5  89222642.50705        30.500    21789062.763 6  89222628.50606        38.781    21789062.002 7  85505071.21607        46.125
G04  22280120.229 7 117082837.35507        42.281    22280119.943 4        24.969    22280119.243 4  91233389.74804        24.969    22280119.566 6  91233390.74306        36.875    22280122.854 7  87432008.72707        43.563
G06  21841699.495 7 114778963.67807        44.938    21841699.317 6        41.500    21841700.486 6  89438180.71106        41.500    21841701.172 6  89438145.72306        38.063    21841700.683 7  85711617.88507        45.406
G09  22512885.382 7 118306023.37307        42.250    22512884.815 4        25.625    22512885.536 4  92186529.31004        25.625    22512885.594 6  92186506.33506        36.188    22512885.475 7  88345421.35207        44.000
G14  23024668.588 6 120995477.76506        40.875    23024668.356 3        21.781    23024667.866 3  94282202.15003        21.781    23024667.460 6  94282203.16606        36.031    23024671.063 7  90353788.98907        42.031
G17  20208664.377 8 106197289.92608        48.938    20208663.877 8        51.156    20208662.171 8  82751144.85508        51.156    20208662.073 7  82751139.86907        43.219
G19  20416614.047 7 107290070.88607        47.813    20416612.782 6        36.563    20416609.928 6  83602657.95906        36.563
G22  24345625.364 6 127937200.67506        38.844    24345624.095 2        15.938    24345620.769 2  99691364.63402        15.938
G28  22323607.871 7 117311386.25107        42.531    22323607.008 3        22.719    22323605.559 3  91411469.97303        22.719
J01  36953206.897 7 194190501.25307        43.688    36953205.768 6 151317219.54006        37.594    36953207.520 7 145012310.84407        45.250
J02  37360572.293 5 196331162.82305        35.906    37360572.858 5 152985303.29305        32.375    37360573.826 6 146610924.71006        38.219
J03  38199540.921 7 200739978.74707        47.656    38199540.300 7 156420780.01207        43.688    38199541.632 8 149903201.41708        49.188
J07  37147300.649 6 195210383.08506        39.094    37147299.649 6 152111980.84606        39.813    37147300.761 7 145774017.26607        45.531
> 2021 03 19 12 00  5.0000000  0 23
E01  27530285.458 5 144672641.05605        35.594    27530287.174 6 108034771.36706        37.250    27530286.341 6 110853066.51706        37.219    27530286.817 6 109443918.48606        40.281
E03  25654987.287 7 134817914.29907        42.500    25654989.483 7 100675735.79707        42.219    25654989.005 6 103302050.23506        41.938    25654989.140 7 101988894.05907        45.063
E07  27000505.104 6 141888653.46606        37.188    27000507.583 6 105955843.27406        37.406    27000506.775 6 108719905.48506        37.281    27000507.221 6 107337879.42606        40.375
E08  22557970.584 7 118542961.15607        45.688    22557971.085 7  88522360.03607        45.375    22557970.152 7  90831632.14607        45.438    22557970.641 8  89676996.13208        48.406
E13  23625344.509 8 124152241.76408        48.188    23625345.573 7  92711201.82707        47.219    23625344.814 7  95129756.94307        47.813    23625345.180 8  93920491.92708        50.500
E15  24631569.058 7 129439993.72707        43.906    24631572.278 7  96659880.24707        44.156    24631570.935 7  99181419.58307        43.969    24631571.573 7  97920651.45707        47.031
E21  26148923.211 6 137413552.00206        39.500    26148925.349 6 102614034.19606        40.594    26148924.434 6 105290915.23606        40.344    26148924.898 7 103952477.76007        43.438
E26  26202943.710 5 137697409.98605        35.688    26202947.233 6 102826003.13806        38.594    26202946.641 6 105508417.43306        38.938    26202946.753 6 104167209.82806        41.781
E27  27204590.596 5 142961114.03405        35.719    27204593.183 5 106756710.41505        35.344    27204592.163 5 109541662.02205        34.719    27204592.543 6 108149186.76106        38.094
G01  23735640.210 6 124731817.67706        36.094    23735639.866 2        14.844    23735642.439 2  97193679.55902        14.844    23735641.049 5  97193532.58805        31.875    23735640.303 6  93144071.48006        39.219
G03  21789605.451 7 114505225.62607        45.063    21789605.340 5        30.469    21789606.356 5  89224868.00105        30.469    21789606.033 6  89224854.00206        38.531    21789605.462 7  85507203.97807        46.219
G04  22279941.633 7 117081898.81907        42.219    22279941.347 4        25.031    22279940.678 4  91232658.42004        25.031    22279940.967 6  91232659.42406        37.313    22279944.217 7  87431307.87507        43.531
G06  21841410.793 7 114777446.97307        44.875    21841410.610 6        41.500    21841411.865 6  89436998.86506        41.500    21841412.521 6  89436963.87406        38.063    21841412.076 7  85710485.28207        45.375
G09  22512390.818 7 118303423.63807        42.375    22512390.251 4        25.594    22512390.827 4  92184503.54404        25.594    22512390.706 6  92184480.55106        36.156    22512390.782 7  88343479.98907        43.969
G14  23025307.620 6 120998835.90206        40.906    23025307.388 3        21.656    23025306.870 3  94284818.87703        21.656    23025306.502 6  94284819.88706        36.125    23025310.087 7  90356296.68707        42.063
G17  20208605.383 8 106196979.92308        48.938    20208604.883 8        51.125    20208603.173 8  82750903.29508        51.125    20208603.161 7  82750898.30307        43.156
G19  20416309.814 7 107288472.48707        47.781    20416308.549 6        36.563    20416305.759 6  83601412.45306        36.563
G22  24346265.588 6 127940565.83906        38.656    24346264.323 2        15.781    24346261.150 2  99693986.83702        15.781
G28  22324135.404 7 117314158.13207        42.344    22324134.537 3        22.719    22324132.964 3  91413629.87003        22.719
J01  36953263.790 7 194190800.19707        43.719    36953262.389 6 151317452.46906        37.438    36953264.373 7 145012534.07507        45.250
J02  37360696.141 5 196331811.97905        35.969    37360696.182 5 152985809.14205        32.719    37360697.368 6 146611409.45106        38.219
J03  38199446.741 7 200739484.06607        47.719    38199446.233 7 156420394.54407        43.750    38199447.478 8 149902832.00908        49.219
J07  37147327.303 6 195210522.15706        38.781    37147326.011 6 152112089.19906        39.750    37147327.213 7 145774121.11407        45.563
> 2021 03 19 12 00  6.0000000  0 23
E01  27530220.453 5 144672299.11605        35.781    27530222.154 6 108034515.98606        37.188    27530221.350 6 110852804.51706        37.406    27530221.728 6 109443659.79506        40.313
E03  25655194.095 7 134819001.30907        42.563    25655196.338 7 100676547.51407        42.031    25655195.870 6 103302883.12506        41.906    25655195.988 7 101989716.36207        44.906
E07  26999950.652 6 141885740.45706        36.969    26999953.288 6 105953667.95906        37.438    26999952.454 6 108717673.43406        37.344    26999952.869 6 107335675.74206        40.406
E08  22557674.394 7 118541404.42607        45.719    22557674.872 7  88521197.55007        45.375    22557673.939 7  90830439.32207        45.438    22557674.400 8  89675818.47808        48.438
E13  23625252.720 8 124151759.23508        48.188    23625253.744 7  92710841.49807        47.156    23625252.955 7  95129387.20707        47.844    23625253.360 8  93920126.89308        50.500
E15  24631812.642 7 129441273.88607        43.844    24631815.851 7  96660836.20707        44.188    24631814.601 7  99182400.47207        44.000    24631815.169 7  97921619.88107        47.031
E21  26149269.101 6 137415369.70506        39.281    26149271.288 6 102615391.56106        40.688    26149270.392 6 105292308.02006        40.344    26149270.792 7 103953852.83107        43.531
E26  26202614.723 5 137695681.49505        35.531    26202618.310 6 102824712.35106        38.594    26202617.642 6 105507092.99806        39.094    26202617.812 6 104165902.21706        41.875
E27  27205152.858 5 142964068.66805        35.469    27205155.329 5 106758916.80105        35.156    27205154.517 5 109543925.96305        34.719    27205154.787 6 108151421.92606        37.969
G01  23736156.855 5 124734534.08205        35.875    23736156.525 2        14.781    23736159.399 2  97195796.25102        14.781    23736157.839 5  97195649.24605        31.844    23736157.184 6  93146099.97206        39.344
G03  21790149.206 7 114508082.45607        45.000    21790149.095 5        30.469    21790149.998 5  89227094.10305        30.469    21790149.209 6  89227080.11906        38.500    21790149.136 7  85509337.32207        46.281
G04  22279763.090 7 117080961.33407        42.219    22279762.804 4        25.031    22279762.309 4  91231927.91104        25.031    22279762.548 6  91231928.90906        37.031    22279765.823 7  87430607.80807        43.594
G06  21841122.345 7 114775930.88707        44.719    21841122.167 6        41.531    21841123.370 6  89435817.49906        41.531    21841124.171 6  89435782.50406        37.906    21841123.577 7  85709353.14207        45.438
G09  22511896.106 7 118300824.67607        42.094    22511895.534 4        25.719    22511896.279 4  92182478.37604        25.719    22511896.249 5  92182455.40905        35.875    22511896.233 7  88341539.20707        44.031
G14  23025946.637 6 121002194.65806        40.750    23025946.401 3        21.781    23025945.990 3  94287436.09703        21.781    23025945.452 5  94287437.11405        35.688    23025949.239 7  90358804.85907        42.031
G17  20208546.588 8 106196670.88108        48.875    20208546.088 8        51.188    20208544.358 8  82750662.48508        51.188    20208544.295 7  82750657.49707        43.156
G19  20416005.839 7 107286875.01307        47.656    20416004.574 6        36.594    20416001.774 6  83600167.66906        36.594
G22  24346905.859 6 127943931.50406        38.688    24346904.594 2        16.031    24346901.616 2  99696609.41602        16.031
G28  22324662.932 7 117316930.77507        42.375    22324662.061 3        22.750    22324660.584 3  91415790.37503        22.750
J01  36953320.800 7 194191099.70007        43.719    36953319.513 6 151317685.87406        37.406    36953321.323 7 145012757.73307        45.281
J02  37360819.830 5 196332461.62405        35.938    37360820.187 5 152986315.37205        32.844    37360821.113 6 146611894.57006        38.156
J03  38199352.629 7 200738989.82407        47.688    38199352.039 7 156420009.42207        43.813    38199353.434 8 149902462.93608        49.281
J07  37147354.135 6 195210661.70606        38.844    37147352.638 6 152112197.92306        39.688    37147353.798 7 145774225.31607        45.625
> 2021 03 19 12 00  7.0000000  0 23
E01  27530155.471 5 144671957.94505        35.906    27530157.241 6 108034261.22206        37.500    27530156.490 6 110852543.11806        37.500    27530156.800 6 109443401.71206        40.500
E03  25655401.048 7 134820089.09307        42.375    25655403.405 7 100677359.84307        42.063    25655402.903 7 103303716.63107        42.000    25655402.993 7 101990539.27907        44.969
E07  26999396.427 6 141882827.80006        36.938    26999398.954 6 105951492.95006        37.156    26999398.222 6 108715441.67506        37.469    26999398.634 6 107333472.35706        40.344
E08  22557378.260 7 118539848.41707        45.781    22557378.745 7  88520035.59207        45.438    22557377.855 7  90829247.06207        45.500    22557378.307 8  89674641.36908        48.500
E13  23625161.018 8 124151277.12508        48.188    23625162.045 7  92710481.48407        47.156    23625161.214 7  95129017.80907        47.813    23625161.625 8  93919762.18808        50.531
E15  24632056.382 7 129442554.48007        43.781    24632059.551 7  96661792.50107        44.188    24632058.309 7  99183381.71607        43.969    24632058.850 7  97922588.65107        47.063
E21  26149615.136 6 137417188.06106        39.469    26149617.289 6 102616749.43706        40.500    26149616.404 6 105293701.30606        40.313    26149616.824 7 103955228.41407        43.438
E26  26202285.908 5 137693953.31105        35.719    26202289.421 6 102823421.82106        38.438    26202288.749 6 105505768.79506        39.094    26202288.964 6 104164594.85306        41.813
E27  27205715.022 5 142967023.61105        35.438    27205717.607 5 106761123.41405        35.313    27205716.773 5 109546190.12705        34.625    27205717.080 6 108153657.31506        38.031
G01  23736674.087 6 124737250.87406        36.125    23736673.757 2        15.094    23736676.372 2  97197913.22502        15.094    23736674.601 5  97197766.22305        31.813    23736674.116 6  93148128.74206        39.375
G03  21790692.935 7 114510939.91307        45.125    21790692.819 5        30.375    21790693.729 5  89229320.69505        30.375    21790693.010 6  89229306.71406        38.469    21790692.929 7  85511471.14507        46.219
G04  22279584.917 7 117080024.74807        42.219    22279584.636 4        25.094    22279584.110 4  91231198.10604        25.094    22279584.272 6  91231199.10506        37.063    22279587.595 7  87429908.40707        43.625
G06  21840833.876 7 114774415.27007        44.875    21840833.698 6        41.531    21840834.954 6  89434636.50006        41.531    21840835.632 6  89434601.50006        38.125    21840835.125 7  85708221.36107        45.563
G09  22511401.686 7 118298226.36707        42.156    22511401.114 4        25.750    22511401.793 4  92180453.71904        25.750    22511402.001 6  92180430.76406        36.000    22511401.845 7  88339598.92007        44.063
G14  23026585.623 6 121005553.94306        40.844    23026585.387 3        21.875    23026585.248 3  94290053.72503        21.875    23026584.652 6  94290054.73406        36.000    23026588.564 7  90361313.40107        42.125
G17  20208487.983 8 106196362.65308        48.938    20208487.483 8        51.156    20208485.699 8  82750422.30708        51.156    20208485.680 7  82750417.31807        43.094
G19  20415702.001 7 107285278.33307        47.781    20415700.736 6        36.594    20415697.941 6  83598923.50106        36.594
G22  24347546.463 6 127947297.53106        38.750    24347545.203 2        16.313    24347542.131 2  99699232.29202        16.313
G28  22325190.606 7 117319704.03307        42.438    22325189.735 3        22.625    22325188.236 3  91417951.35503        22.625
J01  36953377.815 7 194191399.63707        43.906    36953376.551 6 151317919.58206        37.594    36953378.428 7 145012981.72007        45.219
J02  37360943.743 6 196333111.60306        36.000    37360943.706 5 152986821.82305        32.563    37360944.812 6 146612379.97006        38.156
J03  38199258.539 7 200738495.90007        47.688    38199257.960 7 156419624.54007        43.906    38199259.437 8 149902094.09708        49.281
J07  37147380.735 6 195210801.58006        39.063    37147379.147 6 152112306.94806        39.781    37147380.469 7 145774329.77907        45.594
> 2021 03 19 12 00  8.0000000  0 23
E01  27530090.452 5 144671616.69305        35.719    27530092.371 6 108034006.38906        37.406    27530091.527 6 110852281.64206        37.063    27530091.872 6 109443143.55606        40.281
E03  25655607.954 7 134821176.75707        42.469    25655610.372 7 100678172.04407        42.063    25655609.850 7 103304550.03607        42.000    25655609.976 7 101991362.08307        45.000
E07  26998842.162 6 141879914.62106        36.906    26998844.532 6 105949317.50306        37.219    26998843.765 6 108713209.49806        37.344    26998844.274 6 107331268.54406        40.344
E08  22557082.078 7 118538292.23407        45.719    22557082.612 7  88518873.51007        45.375    22557081.720 7  90828054.65607        45.625    22557082.174 8  89673464.12508        48.500
E13  23625069.189 8 124150794.54308        48.188    23625070.173 7  92710121.11107        47.156    23625069.389 7  95128648.03207        47.844    23625069.800 8  93919397.11408        50.500
E15  24632300.031 7 129443834.62707        43.719    24632303.147 7  96662748.45807        44.250    24632301.892 7  99184362.60907        43.969    24632302.451 7  97923557.07507        47.094
E21  26149961.075 6 137419006.21006        39.438    26149963.410 6 102618107.15006        40.500    26149962.363 6 105295094.42706        40.250    26149962.811 7 103956603.83007        43.406
E26  26201957.002 5 137692224.52905        35.313    26201960.541 6 102822130.85106        38.594    26201959.793 6 105504444.14406        39.313    26201959.974 7 104163287.04107        42.031
E27  27206277.285 5 142969977.95805        35.500    27206279.966 5 106763329.58205        35.219    27206279.072 5 109548453.86405        34.781    27206279.306 6 108155892.26606        38.063
G01  23737190.807 6 124739967.14906        36.219    23737190.477 2        15.094    23737193.278 2  97200029.79402        15.094    23737191.525 5  97199882.82605        31.563    23737191.137 6  93150157.12706        39.156
G03  21791236.569 7 114513797.11107        45.188    21791236.458 5        30.469    21791237.412 5  89231547.08205        30.469    21791236.767 6  89231533.09006        38.250    21791236.652 7  85513604.76507        46.156
G04  22279406.699 7 117079088.17107        42.281    22279406.413 4        25.250    22279405.952 4  91230468.29904        25.250    22279406.137 6  91230469.29306        36.938    22279409.412 7  87429209.01207        43.563
G06  21840545.421 7 114772899.23107        44.781    21840545.238 6        41.625    21840546.450 6  89433455.17306        41.625    21840547.201 6  89433420.19206        38.031    21840546.615 7  85707089.25007        45.500
G09  22510907.220 7 118295627.82607        42.188    22510906.648 4        25.688    22510907.272 4  92178428.88004        25.688    22510907.274 6  92178405.89806        36.000    22510907.373 7  88337658.43807        44.000
G14  23027224.589 6 121008912.80406        40.969    23027224.353 3        21.875    23027224.409 3  94292671.01403        21.875    23027224.019 5  94292672.02105        35.813    23027227.743 7  90363821.64407        42.000
G17  20208429.286 8 106196054.34408        49.031    20208428.786 8        51.250    20208427.027 8  82750182.06508        51.250    20208426.912 7  82750177.07807        43.156
G19  20415398.062 7 107283681.55907        47.875    20415396.793 6        36.688    20415394.085 6  83597679.26206        36.688
G22  24348186.954 6 127950663.02606        38.969    24348185.694 2        16.313    24348182.610 2  99701854.74802        16.313
G28  22325718.182 7 117322477.04207        42.469    22325717.311 3        22.688    22325715.995 3  91420112.14503        22.688
J01  36953434.807 7 194191699.11207        43.844    36953433.705 6 151318152.92306        37.625    36953435.415 7 145013205.33807        45.313
J02  37361067.549 5 196333761.05905        35.906    37361067.546 5 152987327.90405        32.688    37361068.388 6 146612864.94506        38.094
J03  38199164.389 7 200738001.38107        47.781    38199163.824 7 156419239.20207        43.875    38199165.330 8 149901724.81508        49.313
J07  37147407.254 6 195210940.92706        38.875    37147405.526 6 152112415.51306        39.719    37147406.978 7 145774433.81707        45.594
> 2021 03 19 12 00  9.0000000  0 23
E01  27530025.505 5 144671275.70605        35.875    27530027.460 6 108033751.76906        37.250    27530026.540 6 110852020.34206        37.469    27530026.985 6 109442885.59806        40.375
E03  25655815.043 7 134822264.70607        42.531    25655817.373 7 100678984.48607        42.125    25655816.922 7 103305383.66707        42.000    25655816.998 7 101992185.12107        45.031
E07  26998287.874 6 141877001.30106        37.250    26998290.153 6 105947141.97806        37.313    26998289.417 6 108710977.20906        37.563    26998289.891 6 107329064.63906        40.469
E08  22556786.001 7 118536736.25807        45.813    22556786.521 7  88517711.58607        45.406    22556785.665 7  90826862.41807        45.625    22556786.085 8  89672287.04308        48.531
E13  23624977.304 8 124150311.87908        48.313    23624978.324 7  92709760.67807        47.156    23624977.540 7  95128278.19307        47.875    23624977.948 8  93919031.97808        50.500
E15  24632543.617 7 129445114.71307        43.781    24632546.749 7  96663704.36007        44.125    24632545.458 7  99185343.45407        44.031    24632546.038 7  97924525.44907        47.031
E21  26150306.990 6 137420824.50606        39.438    26150309.414 6 102619464.96306        40.656    26150308.349 6 105296487.68106        40.375    26150308.821 7 103957979.36407        43.563
E26  26201627.965 5 137690495.56905        35.906    26201631.536 6 102820839.75206        38.563    26201630.770 6 105503119.36106        39.344    26201630.979 7 104161979.10007        42.000
E27  27206839.448 5 142972932.06905        35.781    27206842.057 5 106765535.58205        35.375    27206841.274 5 109550717.41205        34.875    27206841.424 6 108158127.04106        38.156
G01  23737707.841 6 124742683.30806        36.125    23737707.502 2        15.281    23737710.149 2  97202146.27702        15.281    23737708.297 5  97201999.29405        31.656    23737707.956 6  93152185.41806        39.188
G03  21791780.372 7 114516654.43307        45.188    21791780.256 5        30.500    21791781.134 5  89233773.56205        30.500    21791780.742 6  89233759.57606        38.250    21791780.422 7  85515738.47607        46.250
G04  22279228.508 7 117078151.99107        42.281    22279228.227 4        25.344    22279227.838 4  91229738.80804        25.344    22279228.504 6  91229739.80206        37.031    22279231.283 7  87428509.92907        43.531
G06  21840256.928 7 114771383.17207        44.875    21840256.745 6        41.625    21840257.950 6  89432273.82706        41.625    21840258.398 6  89432238.84206        38.031    21840258.145 7  85705957.12707        45.500
G09  22510412.764 7 118293029.43807        42.156    22510412.192 4        25.719    22510412.822 4  92176404.17004        25.719    22510413.041 6  92176381.17606        36.281    22510412.944 7  88335718.08107        44.094
G14  23027863.522 6 121012271.65906        40.906    23027863.286 3        21.750    23027863.547 3  94295288.30203        21.750    23027863.173 5  94295289.30605        35.906    23027866.913 6  90366329.88606        41.906
G17  20208370.740 8 106195746.35608        49.125    20208370.240 8        51.250    20208368.413 8  82749942.07608        51.250    20208368.065 7  82749937.08207        43.156
G19  20415094.190 7 107282085.07507        47.875    20415092.925 6        36.719    20415090.292 6  83596435.24906        36.719
G22  24348827.362 6 127954028.39106        38.938    24348826.106 2        16.281    24348823.045 2  99704477.11902        16.281
G28  22326245.734 7 117325250.16907        42.500    22326244.863 3        22.719    22326243.668 3  91422273.01803        22.719
J01  36953491.739 7 194191998.50907        44.063    36953490.532 6 151318386.22306        37.719    36953492.391 7 145013428.92207        45.406
J02  37361191.275 6 196334410.33706        36.031    37361190.805 5 152987833.82805        33.000    37361191.994 6 146613349.80906        38.031
J03  38199070.248 7 200737506.66707        47.844    38199069.621 7 156418853.71407        43.875    38199071.203 8 149901355.38308        49.313
J07  37147433.889 6 195211080.09306        39.031    37147432.170 6 152112523.96106        39.875    37147433.442 7 145774537.74407        45.688
> 2021 03 19 12 00 10.0000000  0 23
E01  27529960.572 5 144670935.28905        35.781    27529962.671 6 108033497.56306        37.250    27529961.762 6 110851759.51206        37.188    27529962.182 6 109442628.08106        40.250
E03  25656022.140 7 134823353.18707        42.594    25656024.565 7 100679797.30807        42.188    25656024.042 6 103306217.68906        41.938    25656024.133 7 101993008.54107        45.031
E07  26997733.423 6 141874088.08406        37.031    26997735.816 6 105944966.51506        37.313    26997734.939 6 108708745.01706        37.250    26997735.526 6 107326860.80906        40.313
E08  22556489.974 7 118535180.76807        45.813    22556490.497 7  88516550.00707        45.375    22556489.665 7  90825670.54607        45.500    22556490.077 8  89671110.31808        48.438
E13  23624885.487 8 124149829.38608        48.219    23624886.501 7  92709400.37607        47.156    23624885.743 7  95127908.49607        47.813    23624886.133 8  93918666.97808        50.500
E15  24632787.253 7 129446394.99007        43.563    24632790.343 7  96664660.41207        44.188    24632789.069 7  99186324.45107        43.906    24632789.656 7  97925493.97207        47.000
E21  26150652.965 6 137422643.24906        39.438    26150655.528 6 102620823.11006        40.688    26150654.412 6 105297881.25906        40.281    26150654.924 7 103959355.22707        43.500
E26  26201298.895 6 137688766.67506        36.000    26201302.367 6 102819548.68306        38.469    26201301.825 6 105501794.62906        39.250    26201301.965 6 104160671.19806        41.906
E27  27207401.781 5 142975886.27205        35.594    27207404.261 5 106767741.63905        35.219    27207403.374 5 109552981.00705        34.969    27207403.588 6 108160361.86706        38.156
G01  23738225.007 6 124745399.53806        36.000    23738224.672 2        14.938    23738226.965 2  97204262.81202        14.938    23738225.665 5  97204115.84505        31.375    23738224.837 6  93154213.79306        39.156
G03  21792324.183 7 114519512.14407        45.156    21792324.072 5        30.500    21792324.892 5  89236000.35405        30.500    21792324.597 6  89235986.37506        38.281    21792324.253 7  85517872.47807        46.313
G04  22279050.529 7 117077216.47407        42.406    22279050.243 4        25.250    22279049.832 4  91229009.83304        25.250    22279050.163 6  91229010.83106        37.438    22279053.266 7  87427811.31107        43.688
G06  21839968.460 7 114769867.33607        44.875    21839968.277 6        41.656    21839969.494 6  89431092.65706        41.656    21839969.990 6  89431057.67506        37.938    21839969.709 7  85704825.17107        45.563
G09  22509918.340 7 118290431.42407        42.219    22509917.768 4        25.625    22509918.444 4  92174379.74304        25.625    22509918.795 6  92174356.76506        36.406    22509918.633 7  88333778.01607        44.094
G14  23028502.775 6 121015630.76406        40.813    23028502.539 3        21.625    23028502.761 3  94297905.79003        21.625    23028502.097 5  94297906.78805        35.750    23028506.168 7  90368838.30007        42.063
G17  20208312.313 8 106195438.94208        49.094    20208311.813 8        51.281    20208309.910 8  82749702.53208        51.281    20208309.597 7  82749697.54407        43.063
G19  20414790.435 7 107280489.14207        47.844    20414789.170 6        36.750    20414786.602 6  83595191.66606        36.750
G22  24349467.817 6 127957393.86506        38.875    24349466.557 2        16.094    24349463.493 2  99707099.55602        16.094
G28  22326773.495 7 117328023.67207        42.344    22326772.624 3        22.875    22326771.365 3  91424434.19303        22.875
J01  36953548.878 7 194192298.09007        44.000    36953547.399 6 151318619.65506        37.750    36953549.380 7 145013652.62907        45.375
J02  37361314.649 6 196335059.72106        36.000    37361313.896 5 152988339.85005        32.781    37361315.519 6 146613834.72006        38.156
J03  38198976.177 7 200737012.01507        47.813    38198975.424 7 156418468.26607        43.719    38198977.077 8 149900986.00008        49.344
J07  37147460.355 6 195211219.33506        38.875    37147458.576 6 152112632.46606        39.844    37147459.964 7 145774641.72707        45.688
> 2021 03 19 12 00 11.0000000  0 23
E01  27529895.774 6 144670595.30506        36.000    27529898.028 6 108033243.67506        37.313    27529896.893 6 110851499.00706        37.094    27529897.469 6 109442370.88406        40.250
E03  25656229.439 7 134824442.08607        42.531    25656231.812 7 100680610.44607        42.063    25656231.238 6 103307052.04306        41.906    25656231.357 7 101993832.28707        44.938
E07  26997178.960 6 141871174.87906        37.125    26997181.405 6 105942791.05306        37.313    26997180.570 6 108706512.79206        37.219    26997181.179 6 107324656.96506        40.313
E08  22556194.091 7 118533625.62607        45.719    22556194.582 7  88515388.70207        45.406    22556193.711 7  90824478.95007        45.375    22556194.150 8  89669933.86708        48.406
E13  23624793.682 8 124149346.95108        48.125    23624794.687 7  92709040.11407        47.094    23624793.929 7  95127538.83407        47.750    23624794.330 8  93918302.01708        50.438
E15  24633030.971 7 129447675.35407        43.625    24633033.982 7  96665616.52607        44.094    24633032.658 7  99187305.50807        43.781    24633033.302 7  97926462.55707        46.906
E21  26150999.033 6 137424462.30906        39.344    26151001.765 6 102622181.49106        40.563    26151000.553 6 105299275.07606        40.094    26151001.095 7 103960731.32607        43.313
E26  26200970.004 5 137687037.73305        35.906    26200973.313 6 102818257.60806        38.531    26200972.672 6 105500469.86006        39.156    26200972.970 6 104159363.27606        41.875
E27  27207963.819 5 142978840.37905        35.719    27207966.318 5 106769947.61605        35.344    27207965.653 5 109555244.55405        35.125    27207965.751 6 108162596.62906        38.250
G01  23738741.868 6 124748115.81706        36.281    23738741.529 2        14.688    23738743.845 2  97206379.40002        14.688    23738742.796 5  97206232.43805        31.875    23738741.738 6  93156242.17306        39.281
G03  21792868.134 7 114522370.12507        45.094    21792868.023 5        30.469    21792868.718 5  89238227.35305        30.469    21792868.576 6  89238213.35506        38.313    21792868.121 7  85520006.68407        46.281
G04  22278872.600 7 117076281.48407        42.313    22278872.319 4        25.156    22278871.955 4  91228281.27304        25.156    22278872.135 6  91228282.26606        37.438    22278875.418 7  87427113.12907        43.625
G06  21839680.088 7 114768351.61407        44.625    21839679.905 6        41.625    21839681.061 6  89429911.57606        41.625    21839681.454 6  89429876.57406        37.906    21839681.300 7  85703693.29907        45.469
G09  22509424.054 7 118287833.70507        42.125    22509423.478 4        25.781    22509424.120 4  92172355.54304        25.781    22509424.707 6  92172332.57406        36.469    22509424.332 7  88331838.15907        44.188
G14  23029142.219 6 121018989.99706        40.656    23029141.983 3        21.625    23029141.979 3  94300523.37503        21.625    23029141.594 5  94300524.37305        35.750    23029145.430 7  90371346.82007        42.094
G17  20208253.900 8 106195131.98808        49.094    20208253.400 8        51.281    20208251.493 8  82749463.34608        51.281    20208251.225 7  82749458.35907        42.875
G19  20414486.879 7 107278893.64007        47.688    20414485.614 6        36.719    20414482.978 6  83593948.41806        36.719
G22  24350108.475 6 127960759.37206        38.938    24350107.215 2        15.656    24350103.941 2  99709722.03302        15.656
G28  22327301.159 7 117330797.43207        42.375    22327300.288 3        22.969    22327299.195 3  91426595.56203        22.969
J01  36953605.886 7 194192597.71807        44.031    36953604.379 6 151318853.13606        37.688    36953606.410 7 145013876.38407        45.250
J02  37361438.312 5 196335709.11105        35.938    37361437.431 5 152988845.87305        32.438    37361439.064 6 146614319.65906        37.906
J03  38198882.044 7 200736517.29707        47.844    38198881.372 7 156418082.77207        43.781    38198882.930 8 149900616.57408        49.313
J07  37147486.659 6 195211358.56006        39.125    37147485.144 6 152112740.95506        39.781    37147486.430 7 145774745.70007        45.563
> 2021 03 19 12 00 12.0000000  0 23
E01  27529831.194 6 144670255.76706        36.000    27529833.452 6 108032990.12006        37.531    27529832.264 6 110851238.84106        37.344    27529832.876 6 109442114.02506        40.469
E03  25656436.712 7 134825531.40507        42.594    25656439.180 7 100681423.90207        42.031    25656438.455 6 103307886.72206        41.875    25656438.643 7 101994656.35607        44.938
E07  26996624.543 6 141868261.66506        37.281    26996627.128 6 105940615.61306        37.156    26996626.282 6 108704280.59406        37.438    26996626.809 6 107322453.14806        40.313
E08  22555898.169 7 118532070.85007        45.719    22555898.734 7  88514227.66907        45.438    22555897.802 7  90823287.63007        45.438    22555898.285 8  89668757.69108        48.438
E13  23624701.909 8 124148864.57108        48.125    23624702.874 7  92708679.89807        47.125    23624702.137 7  95127169.22507        47.844    23624702.537 8  93917937.10308        50.469
E15  24633274.603 7 129448955.80007        43.531    24633277.612 7  96666572.70107        44.125    24633276.342 7  99188286.61907        43.875    24633276.960 7  97927431.20207        46.969
E21  26151345.164 6 137426281.65206        39.531    26151348.047 6 102623540.09006        40.594    26151346.770 6 105300669.12006        40.313    26151347.310 7 103962107.64607        43.469
E26  26200641.040 5 137685308.73805        35.906    26200644.258 6 102816966.48206        38.531    26200643.729 6 105499145.04506        39.063    26200643.953 6 104158055.30606        41.844
E27  27208526.097 5 142981794.44405        35.750    27208528.508 5 106772153.58005        35.406    27208527.651 5 109557508.04505        34.875    27208527.848 6 108164831.35706        38.219
G01  23739258.849 6 124750832.07706        36.313    23739258.514 2        14.875    23739260.720 2  97208495.97202        14.875    23739259.350 5  97208348.96805        31.906    23739258.614 6  93158270.56706        39.000
G03  21793412.021 7 114525228.37707        45.156    21793411.910 5        30.438    21793412.574 5  89240454.56005        30.438    21793412.448 6  89240440.57306        38.375    21793412.022 7  85522141.10107        46.250
G04  22278694.839 7 117075347.04507        42.625    22278694.558 4        25.313    22278694.190 4  91227553.13404        25.313    22278694.492 6  91227554.13806        37.438    22278697.594 7  87426415.32307        43.500
G06  21839391.644 7 114766835.99107        44.656    21839391.466 6        41.625    21839392.650 6  89428730.57106        41.625    21839392.914 6  89428695.58306        37.969    21839392.898 7  85702561.51207        45.469
G09  22508929.715 7 118285236.29607        42.219    22508929.139 4        25.750    22508929.827 4  92170331.59004        25.750    22508930.313 6  92170308.61106        36.344    22508930.048 7  88329898.53907        44.063
G14  23029781.710 6 121022349.36806        40.750    23029781.469 3        21.594    23029781.291 3  94303141.06703        21.594    23029780.562 5  94303142.08605        35.813    23029784.750 7  90373855.44307        42.063
G17  20208195.596 8 106194825.49508        49.031    20208195.096 8        51.281    20208193.165 8  82749224.52108        51.281    20208192.945 7  82749219.53107        43.094
G19  20414183.362 7 107277298.58007        47.844    20414182.097 6        36.781    20414179.449 6  83592705.51406        36.781
G22  24350748.753 6 127964124.87306        39.031    24350747.493 2        16.094    24350744.394 2  99712344.50902        16.094
G28  22327829.044 7 117333571.46607        42.344    22327828.168 3        23.063    22327827.039 3  91428757.14603        23.063
J01  36953663.047 7 194192897.43807        44.031    36953661.589 6 151319086.69406        37.750    36953663.457 7 145014100.19507        45.344
J02  37361561.837 5 196336358.48005        35.906    37361561.199 5 152989351.89005        32.844    37361562.600 6 146614804.58006        37.781
J03  38198787.866 7 200736022.54107        47.844    38198787.266 7 156417697.24307        43.938    38198788.724 8 149900247.10708        49.281
J07  37147513.131 6 195211497.77406        39.125    37147511.635 6 152112849.44006        39.813    37147512.931 7 145774849.65607        45.625
> 2021 03 19 12 00 13.0000000  0 23
E01  27529766.541 5 144669916.60505        35.875    27529768.880 6 108032736.83706        37.344    27529767.923 6 110850978.96106        37.281    27529768.355 6 109441857.44206        40.344
E03  25656644.175 7 134826621.08707        42.531    25656646.549 7 100682237.62407        42.125    25656645.827 7 103308721.67407        42.063    25656645.997 7 101995480.69207        45.063
E07  26996070.343 6 141865348.38806        37.094    26996072.731 6 105938440.13206        37.313    26996071.868 6 108702048.34506        37.219    26996072.431 6 107320249.27906        40.281
E08  22555602.369 7 118530516.37707        45.563    22555602.940 7  88513066.86607        45.438    22555601.978 7  90822096.53207        45.594    22555602.474 8  89667581.74108        48.531
E13  23624610.083 8 124148382.20608        48.125    23624611.078 7  92708319.69107        47.188    23624610.328 7  95126799.61407        47.906    23624610.739 8  93917572.19508        50.531
E15  24633518.215 7 129450236.26307        43.563    24633521.288 7  96667528.89407        44.156    24633519.978 7  99189267.75207        43.813    24633520.624 7  97928399.86507        46.969
E21  26151691.455 6 137428101.26306        39.406    26151694.281 6 102624898.90006        40.688    26151692.887 6 105302063.35906        40.313    26151693.575 7 103963484.17207        43.500
E26  26200311.971 6 137683579.67206        36.000    26200315.353 6 102815675.28506        38.625    26200314.659 6 105497820.17006        39.531    26200314.917 7 104156747.26907        42.125
