     3.04           OBSERVATION DATA    M: Mixed            RINEX VERSION / TYPE
RTKCONV 2.4.3 b34                       20210923 065755 UTC PGM / RUN BY / DATE 
format: BINEX                                               COMMENT             
log: C:\work\gps\cssrlib\cssrlib\data\30342650.bnx          COMMENT             
                                                            MARKER NAME         
                                                            MARKER NUMBER       
                                                            MARKER TYPE         
                                                            OBSERVER / AGENCY   
                    TRIMBLE NetR9       5.37,21/SEP/2018    REC # / TYPE / VERS 
                                                            ANT # / TYPE        
 -3959403.8133  3385705.8562  3667525.8580                  APPROX POSITION XYZ 
        0.0000        0.0000        0.0000                  ANTENNA: DELTA H/E/N
G   16 C1C L1C D1C S1C C2W L2W D2W S2W C2X L2X D2X S2X C5X  SYS / # / OBS TYPES 
       L5X D5X S5X                                          SYS / # / OBS TYPES 
E   12 C1X L1X D1X S1X C7X L7X D7X S7X C5X L5X D5X S5X      SYS / # / OBS TYPES 
J   20 C1C L1C D1C S1C C1X L1X D1X S1X C1Z L1Z D1Z S1Z C2X  SYS / # / OBS TYPES 
       L2X D2X S2X C5X L5X D5X S5X                          SYS / # / OBS TYPES 
  2021    09    22    06    30   00.0000000     GPS         TIME OF FIRST OBS   
  2021    09    22    08    35   59.0000000     GPS         TIME OF LAST OBS    
G L1C                                                       SYS / PHASE SHIFT   
G L2W  0.00000                                              SYS / PHASE SHIFT   
G L2X -0.25000                                              SYS / PHASE SHIFT   
G L5X  0.00000                                              SYS / PHASE SHIFT   
E L1X  0.00000                                              SYS / PHASE SHIFT   
E L7X  0.00000                                              SYS / PHASE SHIFT   
E L5X  0.00000                                              SYS / PHASE SHIFT   
J L1C                                                       SYS / PHASE SHIFT   
J L1X  0.25000                                              SYS / PHASE SHIFT   
J L1Z  0.00000                                              SYS / PHASE SHIFT   
J L2X  0.00000                                              SYS / PHASE SHIFT   
J L5X  0.00000                                              SYS / PHASE SHIFT   
  0                                                         GLONASS SLOT / FRQ #
                                                            GLONASS COD/PHS/BIS 
                                                            END OF HEADER       
> 2021 09 22 06 30 00.0000000  0 18                     
G13  21530120.094   113141646.139       -1980.211          46.200    21530120.688    88162378.515       -1543.020          34.400                                                                                                                                  
G20  23499918.969   123492909.742       -3326.402          38.400    23499922.594    96228203.321       -2592.000          19.600                                                                                                                                  
G15  20324479.914   106805954.209        -312.074          50.000    20324480.723    83225433.092        -243.176          53.400    20324480.238    83225414.840        -243.176          49.100                                                                  
G24  20627561.602   108398821.185        2167.184          46.600    20627565.863    84466700.783        1688.715          51.600    20627565.852    84466664.532        1688.715          50.000    20627566.109    80947232.197        1618.352          55.200  
J01  38891487.367   204376141.402         226.969          46.800    38891488.020   204376143.639         226.969          49.600    38891485.707   204376165.413         226.969          47.000    38891487.484   159254137.218         176.859          49.300    38891491.227   152618547.448         169.488          54.100  
J02  37122118.172   195078192.322         342.660          42.000    37122118.031   195078226.585         342.660          44.900    37122115.379   195078216.708         342.660          42.600    37122121.582   152009053.425         267.008          44.100    37122124.426   145675352.631         255.883          47.300  
J07  37265858.133   195833369.374          -0.555          37.600    37265856.980   195833366.652          -0.555          42.100    37265852.305   195833418.591          -0.555          44.900    37265858.523   152597416.888          -0.434          47.700    37265862.250   146239189.740          -0.414          51.600  
J03  37512030.453   197126990.090        -458.383          38.400    37512030.250   197126970.327        -458.383          41.000    37512027.598   197126953.410        -458.383          37.900    37512036.883   153605412.240        -357.184          38.400    37512041.895   147205181.748        -342.301          43.400  
G18  21621309.742   113620773.674          56.832          44.600    21621311.898    88535674.891          44.285          35.900    21621311.762    88535670.634          44.285          47.900    21621315.199    84846684.606          42.438          51.900  
G05  21359990.664   112247504.568       -2084.363          46.200    21359992.137    87465633.407       -1624.180          39.400    21359992.348    87465623.157       -1624.180          46.700                                                                  
G14  24105284.664   126674150.500        -354.949          36.800    24105287.109    98707121.229        -276.586          21.700    24105287.617    98707132.976        -276.586          39.500    24105290.758    94594336.884        -265.059          44.700  
G23  22735697.805   119476921.149        2998.672          41.600    22735699.406    93098939.049        2336.629          29.600    22735699.926    93098925.809        2336.629          44.200    22735703.344    89219806.129        2239.270          48.800  
E27  25781318.789   135481794.415        2544.141          43.600    25781321.297   103810761.471        1949.406          47.400    25781321.754   101171509.854        1899.848          46.600  
E33  25420857.398   133587515.744        -723.051          44.000    25420856.906   102359267.354        -554.027          48.000    25420857.918    99756912.734        -539.941          48.800  
E26  25410752.797   133534373.840       -2685.473          43.800    25410755.465   102318543.369       -2057.699          46.700    25410756.785    99717224.808       -2005.387          46.500  
E30  24902237.273   130862183.820         249.684          45.400    24902237.473   100271035.230         191.316          47.000    24902238.805    97721774.094         186.453          46.900  
E07  24559167.391   129059334.667        -988.652          47.800    24559167.988    98889642.317        -757.539          51.500    24559168.207    96375503.523        -738.277          51.200  
E08  26367787.992   138563622.616       -1880.164          35.400    26367789.512   106172112.276       -1440.645          34.200    26367790.570   103472822.383       -1404.020          34.600  
> 2021 09 22 06 30 01.0000000  0 18                     
G13  21530496.469   113143626.189       -1980.258          46.000    21530497.414    88163921.416       -1543.059          34.900                                                                                                                                  
G20  23500551.977   123496236.040       -3326.473          39.000    23500555.484    96230795.248       -2592.055          19.600                                                                                                                                  
G15  20324538.930   106806266.202        -312.137          49.600    20324540.082    83225676.204        -243.223          53.400    20324539.613    83225657.959        -243.223          49.100                                                                  
G24  20627148.766   108396654.174        2166.711          46.400    20627153.559    84465012.201        1688.348          51.500    20627153.711    84464975.957        1688.348          50.300    20627153.699    80945613.973        1618.000          55.000  
J01  38891444.945   204375914.182         227.234          46.400    38891444.820   204375916.421         227.234          49.500    38891442.297   204375938.187         227.234          47.000    38891444.230   159253960.163         177.066          49.500    38891447.945   152618377.779         169.688          53.900  
J02  37122053.313   195077849.659         342.594          42.000    37122052.930   195077883.882         342.594          44.800    37122050.160   195077874.044         342.594          42.500    37122056.246   152008786.419         266.957          43.800    37122059.141   145675096.732         255.836          47.000  
J07  37265857.281   195833369.841          -0.551          37.800    37265857.094   195833367.088          -0.551          42.000    37265851.988   195833419.058          -0.551          44.900    37265858.867   152597417.232          -0.430          47.700    37265862.363   146239190.071          -0.410          51.500  
J03  37512117.211   197127448.318        -458.402          38.400    37512117.473   197127428.545        -458.402          41.100    37512115.039   197127411.638        -458.402          37.300    37512124.074   153605769.281        -357.195          38.400    37512129.090   147205523.919        -342.313          43.100  
G18  21621298.992   113620717.018          56.363          44.600    21621301.191    88535630.736          43.922          35.500    21621300.961    88535626.502          43.922          47.800    21621304.465    84846642.311          42.090          52.000  
G05  21360386.859   112249588.979       -2084.680          46.000    21360388.852    87467257.616       -1624.426          39.800    21360389.031    87467247.374       -1624.426          46.500                                                                  
G14  24105352.586   126674505.530        -355.305          37.000    24105354.691    98707397.878        -276.859          22.200    24105355.289    98707409.607        -276.859          39.400    24105358.379    94594601.988        -265.324          44.500  
G23  22735127.320   119473922.519        2998.504          40.800    22735128.828    93096602.449        2336.496          29.800    22735128.750    93096589.195        2336.496          44.100    22735132.648    89217566.892        2239.141          49.000  
E27  25780835.047   135479250.325        2543.953          43.000    25780837.133   103808812.108        1949.262          46.900    25780837.625   101169610.037        1899.707          46.800  
E33  25420995.055   133588238.930        -723.465          44.600    25420994.785   102359821.466        -554.344          48.500    25420995.391    99757452.772        -540.250          49.000  
E26  25411263.969   133537059.201       -2685.516          43.200    25411266.426   102320600.974       -2057.730          46.200    25411267.895    99719230.100       -2005.418          46.200  
E30  24902189.594   130861934.225         249.313          45.000    24902190.012   100270843.987         191.031          46.600    24902191.219    97721587.720         186.176          46.700  
E07  24559355.500   129060323.198        -988.582          47.800    24559356.176    98890399.771        -757.484          51.800    24559356.340    96376241.710        -738.227          51.000  
E08  26368145.391   138565502.440       -1879.859          35.000    26368147.406   106173552.615       -1440.414          34.500    26368148.262   103474226.121       -1403.793          35.100  
> 2021 09 22 06 30 02.0000000  0 18                     
G13  21530873.641   113145606.460       -1980.414          46.200    21530874.293    88165464.479       -1543.180          34.700                                                                                                                                  
G20  23501184.773   123499562.638       -3326.805          38.400    23501188.570    96233387.408       -2592.316          20.100                                                                                                                                  
G15  20324598.156   106806578.541        -312.633          49.800    20324599.496    83225919.590        -243.609          53.300    20324599.117    83225901.338        -243.609          49.100                                                                  
G24  20626736.922   108394487.730        2166.047          46.200    20626741.242    84463324.070        1687.828          51.700    20626741.426    84463287.820        1687.828          50.000    20626741.387    80943996.170        1617.500          55.000  
J01  38891401.234   204375686.922         227.230          46.600    38891401.484   204375689.174         227.230          49.700    38891399.453   204375710.934         227.230          47.000    38891400.969   159253783.083         177.063          49.300    38891404.801   152618208.069         169.688          53.900  
J02  37121987.398   195077507.073         342.441          41.800    37121987.914   195077541.307         342.441          45.100    37121984.605   195077531.460         342.441          43.000    37121990.988   152008519.455         266.836          43.800    37121993.898   145674840.914         255.719          47.100  
J07  37265857.805   195833370.306          -0.570          38.000    37265857.457   195833367.560          -0.570          42.100    37265852.621   195833419.523          -0.570          44.900    37265858.785   152597417.607          -0.445          47.500    37265862.422   146239190.427          -0.426          51.400  
J03  37512204.664   197127906.531        -458.281          38.400    37512204.234   197127886.771        -458.281          40.900    37512202.066   197127869.851        -458.281          37.600    37512211.742   153606126.333        -357.102          38.500    37512216.465   147205866.086        -342.223          43.500  
G18  21621287.828   113620661.101          55.480          44.400    21621290.469    88535587.168          43.230          35.800    21621290.504    88535582.907          43.230          47.200    21621293.727    84846600.535          41.430          51.900  
G05  21360783.766   112251673.854       -2085.160          46.000    21360785.684    87468882.196       -1624.801          39.600    21360785.598    87468871.946       -1624.801          46.700                                                                  
G14  24105419.508   126674861.132        -355.844          37.000    24105422.305    98707674.959        -277.281          23.900    24105422.496    98707686.740        -277.281          39.400    24105425.996    94594867.557        -265.727          44.500  
G23  22734557.242   119470924.051        2998.336          41.400    22734558.223    93094265.983        2336.363          30.300    22734558.254    93094252.753        2336.363          43.900    22734562.156    89215327.780        2239.016          48.900  
E27  25780350.859   135476706.471        2543.648          43.400    25780353.039   103806862.904        1949.027          46.800    25780353.617   101167710.402        1899.477          47.000  
E33  25421132.875   133588962.603        -723.992          44.800    25421132.207   102360375.981        -554.750          48.300    25421133.043    99757993.169        -540.645          49.200  
E26  25411774.938   133539744.773       -2685.738          43.600    25411777.398   102322658.740       -2057.902          46.300    25411778.801    99721235.561       -2005.582          46.100  
E30  24902142.188   130861685.163         248.660          45.200    24902142.617   100270653.126         190.535          46.700    24902143.902    97721401.720         185.688          46.500  
E07  24559543.594   129061311.860        -988.766          47.600    24559544.199    98891157.312        -757.625          51.500    24559544.492    96376979.998        -738.363          51.200  
E08  26368503.336   138567382.287       -1880.102          34.800    26368504.934   106174993.056       -1440.598          34.600    26368506.168   103475629.923       -1403.973          35.200  
> 2021 09 22 06 30 03.0000000  0 18                     
G13  21531250.461   113147586.890       -1980.621          46.600    21531251.227    88167007.672       -1543.340          35.400                                                                                                                                  
G20  23501817.563   123502889.474       -3327.008          39.000    23501821.539    96235979.738       -2592.473          20.400                                                                                                                                  
G15  20324657.875   106806891.172        -312.867          49.600    20324658.988    83226163.195        -243.793          53.400    20324658.539    83226144.950        -243.793          49.100                                                                  
G24  20626324.461   108392321.814        2165.508          46.400    20626328.949    84461636.346        1687.406          51.400    20626329.316    84461600.094        1687.406          49.800    20626329.270    80942378.773        1617.098          55.000  
J01  38891358.086   204375459.586         227.324          46.200    38891358.258   204375461.838         227.324          49.500    38891356.156   204375483.590         227.324          46.800    38891357.555   159253605.931         177.137          49.000    38891361.543   152618038.319         169.754          53.800  
J02  37121922.375   195077164.554         342.395          41.800    37121922.781   195077198.802         342.395          44.900    37121919.438   195077188.939         342.395          42.800    37121926.199   152008252.555         266.801          43.700    37121928.855   145674585.149         255.688          47.600  
J07  37265857.766   195833370.820          -0.676          38.400    37265857.617   195833368.053          -0.676          42.000    37265852.586   195833420.045          -0.676          45.000    37265858.832   152597417.982          -0.527          47.500    37265862.297   146239190.797          -0.504          51.500  
J03  37512291.930   197128364.769        -458.336          38.400    37512291.551   197128345.028        -458.336          40.900    37512288.992   197128328.082        -458.336          38.200    37512298.621   153606483.398        -357.145          37.900    37512303.465   147206208.280        -342.266          43.600  
G18  21621277.547   113620605.827          54.844          44.600    21621279.855    88535544.096          42.734          36.000    21621279.934    88535539.862          42.734          47.400    21621283.313    84846559.275          40.953          51.900  
G05  21361180.609   112253759.135       -2085.582          46.400    21361182.379    87470507.090       -1625.129          40.100    21361182.539    87470496.848       -1625.129          46.700                                                                  
G14  24105487.906   126675217.369        -356.621          37.800    24105490.094    98707952.552        -277.887          22.500    24105490.699    98707964.306        -277.887          38.900    24105493.746    94595133.555        -266.309          44.100  
G23  22733985.781   119467925.747        2998.152          41.800    22733987.750    93091929.646        2336.223          29.800    22733987.961    93091916.414        2336.223          44.500    22733991.492    89213088.795        2238.883          48.800  
E27  25779866.953   135474162.797        2543.457          43.400    25779869.020   103804913.871        1948.883          47.200    25779869.602   101165810.912        1899.332          46.800  
E33  25421270.602   133589686.754        -724.449          44.200    25421270.199   102360930.853        -555.098          48.500    25421270.836    99758533.942        -540.984          49.200  
E26  25412286.063   133542430.551       -2685.945          43.600    25412288.461   102324716.675       -2058.063          46.300    25412289.969    99723241.162       -2005.738          45.900  
E30  24902094.945   130861436.563         248.281          45.000    24902095.352   100270462.661         190.242          47.000    24902096.395    97721216.076         185.402          46.600  
E07  24559731.648   129062300.609        -988.887          47.600    24559732.398    98891914.907        -757.719          51.400    24559732.637    96377718.338        -738.457          51.500  
E08  26368861.430   138569262.142       -1880.031          35.000    26368862.707   106176433.443       -1440.543          34.700    26368863.672   103477033.740       -1403.918          35.100  
> 2021 09 22 06 30 04.0000000  0 18                     
G13  21531627.391   113149567.432       -1980.594          46.800    21531628.164    88168550.955       -1543.320          35.200                                                                                                                                  
G20  23502451.328   123506216.469       -3327.020          39.200    23502454.723    96238572.215       -2592.484          19.900                                                                                                                                  
G15  20324717.703   106807204.075        -313.070          49.600    20324718.469    83226407.018        -243.949          53.300    20324718.254    83226388.780        -243.949          48.800                                                                  
G24  20625912.344   108390156.405        2165.184          46.200    20625916.984    84459949.010        1687.156          51.600    20625917.262    84459912.759        1687.156          50.100    20625917.168    80940761.751        1616.859          54.900  
J01  38891314.523   204375232.136         227.492          45.800    38891314.789   204375234.374         227.492          49.600    38891312.754   204375256.148         227.492          46.900    38891314.469   159253428.708         177.266          48.700    38891318.172   152617868.450         169.879          53.800  
J02  37121857.711   195076822.068         342.516          41.600    37121857.539   195076856.314         342.516          44.900    37121854.336   195076846.455         342.516          42.600    37121860.719   152007985.707         266.895          43.700    37121863.656   145674329.389         255.777          47.500  
J07  37265857.258   195833371.214          -0.465          38.400    37265857.375   195833368.496          -0.465          42.100    37265852.363   195833420.424          -0.465          45.000    37265859.195   152597418.336          -0.363          47.300    37265862.652   146239191.128          -0.348          51.900  
J03  37512379.133   197128822.947        -458.180          38.400    37512378.863   197128803.204        -458.180          40.900    37512376.004   197128786.268        -458.180          38.100    37512385.742   153606840.418        -357.023          38.300    37512390.742   147206550.442        -342.148          43.700  
G18  21621267.305   113620551.208          54.398          44.600    21621269.566    88535501.532          42.387          35.800    21621269.336    88535497.283          42.387          47.800    21621272.785    84846518.485          40.621          51.800  
G05  21361577.430   112255844.804       -2085.848          46.600    21361579.367    87472132.285       -1625.336          39.900    21361579.285    87472122.036       -1625.336          46.300                                                                  
G14  24105555.313   126675574.121        -356.902          37.800    24105557.934    98708230.536        -278.105          22.500    24105558.395    98708242.273        -278.105          38.700    24105561.777    94595399.973        -266.520          44.500  
G23  22733415.242   119464927.562        2998.172          41.600    22733417.207    93089593.393        2336.238          29.600    22733417.000    93089580.153        2336.238          44.100    22733420.992    89210849.872        2238.895          48.800  
E27  25779382.586   135471619.309        2543.348          43.600    25779385.164   103802964.956        1948.797          47.300    25779385.629   101163911.551        1899.254          47.000  
E33  25421408.516   133590411.334        -724.758          44.000    25421408.051   102361486.052        -555.336          48.500    25421408.723    99759075.031        -541.215          49.200  
E26  25412797.094   133545116.451       -2686.047          43.600    25412799.594   102326774.710       -2058.141          45.900    25412801.133    99725246.869       -2005.816          46.100  
E30  24902047.664   130861188.399         247.938          45.000    24902048.195   100270272.503         189.977          46.200    24902049.367    97721030.760         185.148          46.500  
E07  24559919.883   129063289.364        -988.793          47.600    24559920.633    98892672.541        -757.645          51.500    24559920.891    96378456.701        -738.383          51.500  
E08  26369218.992   138571141.971       -1879.840          34.800    26369220.566   106177873.856       -1440.398          34.600    26369221.707   103478437.484       -1403.777          34.800  
> 2021 09 22 06 30 05.0000000  0 18                     
G13  21532004.078   113151548.159       -1980.809          46.400    21532005.035    88170094.376       -1543.488          34.800                                                                                                                                  
G20  23503084.906   123509543.820       -3327.508          38.800    23503087.805    96241164.930       -2592.863          19.000                                                                                                                                  
G15  20324776.570   106807517.312        -313.289          50.000    20324778.137    83226651.104        -244.121          53.300    20324777.707    83226632.852        -244.121          49.000                                                                  
G24  20625500.477   108387991.582        2164.660          46.200    20625505.070    84458262.138        1686.746          51.600    20625505.289    84458225.894        1686.746          50.200    20625505.270    80939145.161        1616.465          54.900  
J01  38891271.570   204375004.640         227.625          45.600    38891271.715   204375006.886         227.625          49.500    38891269.371   204375028.645         227.625          46.500    38891271.391   159253251.433         177.367          48.700    38891274.840   152617698.567         169.977          53.800  
J02  37121792.563   195076479.672         342.477          42.200    37121792.402   195076513.926         342.477          44.800    37121789.320   195076504.059         342.477          42.700    37121795.551   152007718.901         266.863          43.900    37121798.430   145674073.719         255.746          47.500  
J07  37265857.828   195833371.741          -0.496          38.000    37265857.406   195833368.999          -0.496          41.900    37265852.633   195833420.959          -0.496          44.800    37265858.996   152597418.728          -0.387          47.500    37265862.730   146239191.499          -0.371          51.500  
J03  37512466.047   197129281.173        -458.094          38.400    37512466.117   197129261.446        -458.094          41.000    37512462.672   197129244.493        -458.094          38.500    37512473.160   153607197.502        -356.957          38.200    37512477.793   147206892.608        -342.082          43.700  
G18  21621256.875   113620497.292          53.664          44.000    21621259.293    88535459.521          41.816          35.700    21621259.340    88535455.272          41.816          47.700    21621262.555    84846478.226          40.074          51.700  
G05  21361974.516   112257930.918       -2086.258          46.400    21361976.352    87473757.825       -1625.656          40.100    21361976.184    87473747.590       -1625.656          46.400                                                                  
G14  24105623.430   126675931.524        -357.738          37.800    24105625.961    98708509.045        -278.758          23.600    24105626.344    98708520.759        -278.758          39.000    24105629.840    94595666.838        -267.141          44.500  
G23  22732845.234   119461929.569        2997.984          41.000    22732846.773    93087257.298        2336.090          30.200    22732846.648    93087244.041        2336.090          44.000    22732850.352    89208611.112        2238.754          49.000  
E27  25778898.867   135469076.052        2543.246          44.000    25778901.352   103801016.225        1948.723          47.100    25778901.555   101162012.368        1899.180          46.500  
E33  25421546.617   133591136.443        -725.254          44.000    25421546.039   102362041.645        -555.715          48.600    25421546.742    99759616.489        -541.586          49.100  
E26  25413307.984   133547802.564       -2686.098          43.600    25413310.836   102328832.902       -2058.180          45.900    25413312.355    99727252.751       -2005.852          46.100  
E30  24902000.688   130860940.746         247.461          44.800    24902001.039   100270082.749         189.613          46.500    24902002.137    97720845.837         184.793          46.700  
E07  24560108.055   129064278.256        -988.773          47.600    24560108.801    98893430.259        -757.633          51.100    24560108.953    96379195.162        -738.371          51.300  
E08  26369576.422   138573021.839       -1879.813          35.600    26369578.594   106179314.255       -1440.375          33.500    26369579.340   103479841.233       -1403.758          35.100  
> 2021 09 22 06 30 06.0000000  0 18                     
G13  21532381.156   113153529.045       -1981.008          46.200    21532381.918    88171637.928       -1543.641          34.900                                                                                                                                  
G20  23503717.992   123512871.359       -3327.852          39.000    23503720.957    96243757.813       -2593.133          19.600                                                                                                                                  
G15  20324836.695   106807830.873        -313.809          49.800    20324837.770    83226895.433        -244.527          53.400    20324837.598    83226877.181        -244.527          48.900                                                                  
G24  20625088.883   108385827.321        2163.824          46.200    20625093.141    84456575.704        1686.098          51.700    20625093.223    84456539.446        1686.098          50.500    20625093.477    80937528.979        1615.840          55.000  
J01  38891227.945   204374777.088         227.480          46.000    38891228.395   204374779.318         227.480          49.600    38891226.082   204374801.092         227.480          46.000    38891227.758   159253074.119         177.258          49.000    38891231.637   152617528.645         169.871          53.800  
J02  37121726.898   195076137.385         342.156          41.600    37121727.223   195076171.640         342.156          44.900    37121723.711   195076161.766         342.156          42.800    37121730.266   152007452.187         266.617          43.900    37121733.266   145673818.112         255.508          47.500  
J07  37265858.320   195833372.275          -0.676          37.800    37265857.695   195833369.523          -0.676          42.000    37265853.004   195833421.493          -0.676          45.000    37265859.438   152597419.125          -0.523          47.600    37265862.641   146239191.884          -0.504          51.600  
J03  37512553.211   197129739.411        -458.164          38.400    37512553.406   197129719.672        -458.164          40.800    37512550.316   197129702.724        -458.164          38.600    37512560.367   153607554.544        -357.012          37.400    37512564.941   147207234.794        -342.137          43.700  
G18  21621246.625   113620444.080          52.777          44.400    21621249.176    88535418.059          41.125          35.200    21621249.129    88535413.810          41.125          47.700    21621252.430    84846438.484          39.414          51.800  
G05  21362371.641   112260017.474       -2086.855          46.200    21362373.285    87475383.713       -1626.121          40.200    21362373.281    87475373.471       -1626.121          46.400                                                                  
G14  24105691.539   126676289.487        -358.477          37.600    24105694.176    98708787.959        -279.332          22.600    24105694.465    98708799.721        -279.332          39.200    24105697.813    94595934.167        -267.695          44.700  
G23  22732274.461   119458931.720        2997.781          41.000    22732276.496    93084921.313        2335.934          30.500    22732276.195    93084908.063        2335.934          43.800    22732279.980    89206372.462        2238.605          48.800  
E27  25778414.938   135466532.988        2542.910          44.000    25778417.242   103799067.662        1948.465          47.300    25778417.711   101160113.344        1898.926          46.900  
E33  25421684.563   133591862.044        -725.922          44.200    25421684.063   102362597.616        -556.227          49.000    25421684.797    99760158.345        -542.086          49.000  
E26  25413819.500   133550488.894       -2686.477          43.400    25413822.113   102330891.260       -2058.469          46.000    25413823.621    99729258.770       -2006.133          46.100  
E30  24901953.563   130860693.593         246.871          44.400    24901953.938   100269893.365         189.160          46.800    24901955.098    97720661.268         184.352          46.900  
E07  24560296.211   129065267.245        -989.133          47.200    24560296.945    98894188.041        -757.906          51.500    24560297.176    96379933.680        -738.637          51.500  
E08  26369934.195   138574901.720       -1880.023          35.200    26369936.199   106180754.692       -1440.539          34.100    26369937.145   103481245.063       -1403.914          35.100  
> 2021 09 22 06 30 07.0000000  0 18                     
G13  21532757.875   113155510.044       -1981.168          46.200    21532759.000    88173181.561       -1543.770          35.400                                                                                                                                  
G20  23504351.734   123516199.041       -3327.875          38.600    23504354.145    96246350.797       -2593.148          19.300                                                                                                                                  
G15  20324896.516   106808144.667        -314.070          50.000    20324897.441    83227139.948        -244.730          53.400    20324897.168    83227121.689        -244.730          49.100                                                                  
G24  20624676.953   108383663.509        2163.480          46.400    20624681.461    84454889.620        1685.828          51.700    20624681.594    84454853.369        1685.828          50.400    20624681.719    80935913.155        1615.586          55.000  
J01  38891184.984   204374549.360         227.707          45.800    38891184.980   204374551.612         227.707          49.700    38891182.742   204374573.364         227.707          46.300    38891184.387   159252896.673         177.434          48.900    38891188.289   152617358.590         170.043          53.900  
J02  37121661.961   195075795.076         342.145          41.800    37121662.070   195075829.326         342.145          44.700    37121658.926   195075819.455         342.145          42.800    37121665.414   152007185.452         266.605          44.200    37121668.242   145673562.501         255.500          47.300  
J07  37265857.930   195833372.708          -0.395          38.200    37265857.836   195833369.971          -0.395          42.100    37265852.820   195833421.925          -0.395          45.000    37265859.320   152597419.491          -0.305          47.600    37265862.902   146239192.223          -0.293          51.400  
J03  37512640.031   197130197.600        -458.246          38.000    37512640.438   197130177.857        -458.246          41.100    37512636.957   197130160.921        -458.246          38.900    37512647.094   153607911.561        -357.074          37.600    37512652.387   147207576.943        -342.195          43.600  
G18  21621237.367   113620391.453          52.215          44.600    21621239.188    88535377.052          40.688          35.900    21621238.875    88535372.804          40.688          47.500    21621242.340    84846399.193          38.992          51.900  
G05  21362769.023   112262104.363       -2087.125          46.000    21362770.465    87477009.854       -1626.332          39.900    21362770.551    87476999.612       -1626.332          46.400                                                                  
G14  24105759.523   126676647.980        -358.918          38.000    24105762.262    98709067.300        -279.676          22.200    24105762.699    98709079.064        -279.676          39.200    24105766.117    94596201.865        -268.023          44.500  
G23  22731703.906   119455933.966        2997.648          41.200    22731706.168    93082585.405        2335.832          29.200    22731705.664    93082572.155        2335.832          43.900    22731709.516    89204133.890        2238.504          48.600  
E27  25777930.805   135463990.077        2542.758          44.200    25777933.301   103797119.206        1948.344          47.400    25777933.996   101158214.418        1898.813          46.700  
E33  25421822.727   133592588.045        -726.352          44.400    25421822.313   102363153.908        -556.555          48.600    25421822.984    99760700.471        -542.406          48.700  
E26  25414330.680   133553175.357       -2686.586          43.600    25414333.289   102332949.704       -2058.551          46.100    25414334.602    99731264.883       -2006.215          46.500  
E30  24901906.641   130860446.835         246.434          44.600    24901907.031   100269704.295         188.824          46.800    24901908.098    97720477.003         184.023          46.500  
E07  24560484.469   129066256.220        -989.109          46.800    24560485.105    98894945.838        -757.891          51.200    24560485.426    96380672.204        -738.621          50.800  
E08  26370291.789   138576781.560       -1879.758          34.200    26370293.844   106182195.065       -1440.336          33.900    26370294.867   103482648.887       -1403.715          34.900  
> 2021 09 22 06 30 08.0000000  0 18                     
G13  21533134.578   113157491.252       -1981.191          46.400    21533135.984    88174725.360       -1543.785          35.400                                                                                                                                  
G20  23504984.945   123519527.063       -3328.113          38.400    23504987.344    96248944.077       -2593.336          20.100                                                                                                                                  
G15  20324956.133   106808458.797        -314.242          50.000    20324957.234    83227384.726        -244.863          53.600    20324957.004    83227366.482        -244.863          49.600                                                                  
G24  20624265.406   108381500.294        2163.059          46.200    20624269.816    84453203.999        1685.500          51.800    20624269.852    84453167.749        1685.500          50.300    20624270.008    80934297.778        1615.270          54.900  
J01  38891141.656   204374321.646         227.797          45.600    38891141.793   204374323.876         227.797          49.600    38891139.617   204374345.650         227.797          46.400    38891141.383   159252719.226         177.504          49.100    38891144.965   152617188.542         170.109          54.100  
J02  37121597.063   195075452.899         342.258          41.800    37121597.059   195075487.154         342.258          44.800    37121593.293   195075477.286         342.258          42.900    37121600.066   152006918.818         266.695          44.300    37121603.035   145673306.976         255.582          46.900  
J07  37265857.563   195833373.229          -0.453          38.200    37265857.859   195833370.477          -0.453          42.000    37265852.848   195833422.446          -0.453          45.200    37265859.316   152597419.893          -0.352          47.700    37265862.980   146239192.608          -0.340          51.400  
J03  37512727.813   197130655.818        -458.004          37.800    37512727.516   197130636.113        -458.004          40.800    37512724.777   197130619.140        -458.004          38.700    37512734.234   153608268.622        -356.883          37.800    37512739.402   147207919.117        -342.016          43.400  
G18  21621226.867   113620339.599          51.523          44.600    21621229.375    88535336.641          40.148          35.700    21621229.332    88535332.386          40.148          47.800    21621232.430    84846360.452          38.477          51.800  
G05  21363165.938   112264191.749       -2087.527          46.400    21363167.637    87478636.385       -1626.645          39.900    21363167.887    87478626.148       -1626.645          46.200                                                                  
G14  24105827.875   126677007.065        -359.234          38.000    24105830.648    98709347.125        -279.922          22.600    24105830.723    98709358.881        -279.922          39.400    24105834.676    94596470.044        -268.258          44.400  
G23  22731133.297   119452936.423        2997.578          41.200    22731135.777    93080249.658        2335.777          29.600    22731135.711    93080236.425        2335.777          44.300    22731139.129    89201895.464        2238.453          48.700  
E27  25777446.898   135461447.439        2542.668          44.000    25777449.543   103795170.945        1948.277          47.400    25777450.004   101156315.685        1898.746          46.900  
E33  25421960.914   133593314.581        -726.707          44.200    25421960.555   102363710.591        -556.828          48.600    25421961.172    99761243.021        -542.672          48.800  
E26  25414841.898   133555862.067       -2686.707          43.600    25414844.496   102335008.328       -2058.645          46.400    25414845.914    99733271.179       -2006.309          46.300  
E30  24901859.898   130860200.615         246.094          44.600    24901860.191   100269515.647         188.566          46.400    24901861.273    97720293.152         183.773          46.500  
E07  24560672.648   129067245.345        -989.086          47.200    24560673.457    98895703.740        -757.871          51.400    24560673.660    96381410.846        -738.602          51.200  
E08  26370649.281   138578661.442       -1879.750          34.800    26370651.664   106183635.571       -1440.328          33.100    26370652.418   103484052.677       -1403.711          35.100  
> 2021 09 22 06 30 09.0000000  0 18                     
G13  21533512.461   113159472.588       -1981.410          46.400    21533512.973    88176269.255       -1543.957          34.900                                                                                                                                  
G20  23505618.125   123522855.314       -3328.277          38.400    23505620.723    96251537.499       -2593.461          19.600                                                                                                                                  
G15  20325016.023   106808773.225        -314.453          50.200    20325016.980    83227629.736        -245.027          53.300    20325016.797    83227611.493        -245.027          48.900                                                                  
G24  20623853.828   108379337.631        2162.457          46.600    20623858.297    84451518.804        1685.031          51.600    20623858.270    84451482.561        1685.031          50.100    20623858.496    80932682.796        1614.820          55.000  
J01  38891097.578   204374093.813         227.867          45.600    38891098.332   204374096.058         227.867          49.500    38891096.094   204374117.818         227.867          46.700    38891097.672   159252541.699         177.559          48.700    38891101.504   152617018.411         170.160          53.900  
J02  37121532.148   195075110.771         342.246          42.200    37121531.813   195075145.013         342.246          44.800    37121528.844   195075135.158         342.246          42.700    37121535.191   152006652.230         266.688          44.100    37121537.988   145673051.491         255.574          47.200  
J07  37265858.203   195833373.781          -0.563          38.400    37265857.961   195833371.013          -0.563          42.100    37265853.039   195833422.998          -0.563          45.100    37265859.641   152597420.287          -0.438          47.700    37265863.168   146239192.999          -0.418          51.400  
J03  37512815.328   197131114.043        -458.242          38.000    37512814.930   197131094.285        -458.242          40.900    37512812.148   197131077.356        -458.242          38.600    37512821.863   153608625.674        -357.070          38.100    37512826.680   147208261.294        -342.195          43.500  
G18  21621217.344   113620288.373          50.902          44.600    21621219.625    88535296.724          39.664          35.900    21621219.289    88535292.483          39.664          48.000    21621222.820    84846322.210          38.012          51.800  
G05  21363563.477   112266279.530       -2087.938          46.600    21363564.945    87480263.233       -1626.965          40.000    21363565.027    87480252.984       -1626.965          46.300                                                                  
G14  24105896.625   126677366.795        -359.902          38.200    24105899.250    98709627.452        -280.441          21.500    24105899.328    98709639.197        -280.441          39.600    24105902.941    94596738.659        -268.758          44.100  
G23  22730562.977   119449939.027        2997.402          41.000    22730565.477    93077914.029        2335.641          29.800    22730565.391    93077900.782        2335.641          44.500    22730568.703    89199657.152        2238.320          48.800  
E27  25776963.281   135458904.970        2542.438          43.200    25776965.754   103793222.833        1948.102          47.200    25776966.234   101154417.114        1898.574          47.000  
E33  25422099.289   133594041.574        -727.207          44.200    25422098.941   102364267.639        -557.211          48.200    25422099.480    99761785.900        -543.043          48.800  
E26  25415353.102   133558548.917       -2686.895          43.200    25415356.055   102337067.098       -2058.789          46.400    25415357.191    99735277.591       -2006.445          46.400  
E30  24901812.867   130859954.860         245.559          44.400    24901813.352   100269327.336         188.152          46.700    24901814.508    97720109.632         183.371          46.400  
E07  24560861.039   129068234.537        -989.219          47.800    24560861.500    98896461.690        -757.973          51.300    24560861.820    96382149.517        -738.703          51.200  
E08  26371007.242   138580541.353       -1879.867          34.200    26371009.527   106185075.969       -1440.418          33.800    26371010.293   103485456.497       -1403.797          35.300  
> 2021 09 22 06 30 10.0000000  0 18                     
G13  21533889.078   113161453.993       -1981.473          46.200    21533890.059    88177813.205       -1544.004          34.300                                                                                                                                  
G20  23506251.344   123526183.693       -3328.449          38.800    23506253.852    96254131.063       -2593.598          19.300                                                                                                                                  
G15  20325075.945   106809087.870        -314.773          50.000    20325076.984    83227874.910        -245.277          53.400    20325076.617    83227856.666        -245.277          48.900                                                                  
G24  20623442.125   108377175.400        2161.910          46.200    20623446.863    84449833.952        1684.605          51.600    20623446.832    84449797.708        1684.605          50.100    20623447.066    80931068.157        1614.414          54.900  
J01  38891054.438   204373865.825         228.012          46.200    38891055.004   204373868.064         228.012          49.600    38891052.926   204373889.830         228.012          46.900    38891054.309   159252364.037         177.672          48.800    38891058.188   152616848.156         170.266          53.900  
J02  37121466.430   195074768.611         342.211          42.200    37121466.641   195074802.872         342.211          44.900    37121463.977   195074792.990         342.211          42.800    37121469.922   152006385.635         266.656          44.500    37121472.949   145672795.991         255.547          47.200  
J07  37265857.820   195833374.164          -0.324          38.200    37265858.383   195833371.446          -0.324          42.100    37265852.809   195833423.389          -0.324          45.000    37265859.668   152597420.633          -0.254          47.700    37265863.168   146239193.323          -0.242          51.400  
J03  37512902.195   197131572.176        -458.172          37.800    37512902.258   197131552.420        -458.172          41.100    37512899.832   197131535.489        -458.172          38.200    37512909.262   153608982.634        -357.016          37.900    37512913.910   147208603.383        -342.141          43.700  
G18  21621208.070   113620237.745          50.367          44.600    21621209.898    88535257.279          39.250          35.800    21621209.789    88535253.030          39.250          47.800    21621213.137    84846284.400          37.613          51.800  
G05  21363960.492   112268367.649       -2088.422          47.200    21363962.414    87481890.339       -1627.340          40.200    21363962.520    87481880.096       -1627.340          46.600                                                                  
G14  24105965.117   126677726.985        -360.578          38.600    24105967.715    98709908.124        -280.969          22.500    24105967.684    98709919.858        -280.969          40.300    24105971.484    94597007.639        -269.262          44.100  
G23  22729992.305   119446941.706        2997.242          41.000    22729995.168    93075578.450        2335.516          28.700    22729994.605    93075565.190        2335.516          44.400    22729998.266    89197418.878        2238.203          48.900  
E27  25776479.445   135456362.617        2542.273          43.200    25776481.965   103791274.799        1947.977          46.800    25776482.414   101152518.606        1898.449          47.000  
E33  25422237.781   133594768.967        -727.672          44.400    25422237.293   102364824.987        -557.566          47.800    25422237.902    99762329.065        -543.391          48.300  
E26  25415864.563   133561235.861       -2686.980          43.400    25415867.109   102339125.921       -2058.855          45.800    25415868.449    99737284.079       -2006.512          46.100  
E30  24901766.461   130859709.490         245.211          44.000    24901766.699   100269139.324         187.891          46.300    24901767.934    97719926.396         183.113          46.400  
E07  24561049.094   129069223.712        -989.234          47.200    24561049.984    98897219.618        -757.984          50.900    24561050.113    96382888.183        -738.715          50.800  
E08  26371365.180   138582421.153       -1879.719          34.400    26371367.133   106186516.369       -1440.305          33.700    26371368.211   103486860.269       -1403.688          35.100  
> 2021 09 22 06 30 11.0000000  0 18                     
G13  21534266.539   113163435.617       -1981.586          46.400    21534267.105    88179357.323       -1544.094          34.600                                                                                                                                  
G20  23506884.703   123529512.358       -3328.688          39.400    23506887.324    96256724.823       -2593.781          19.600                                                                                                                                  
G15  20325135.734   106809402.876        -315.016          49.800    20325136.828    83228120.369        -245.465          53.400    20325136.715    83228102.117        -245.465          48.800                                                                  
G24  20623031.188   108375013.768        2161.430          46.400    20623035.391    84448149.563        1684.230          51.600    20623035.512    84448113.320        1684.230          49.900    20623035.719    80929453.948        1614.055          54.900  
J01  38891011.328   204373637.796         228.152          46.400    38891011.398   204373640.041         228.152          49.600    38891009.164   204373661.800         228.152          47.200    38891011.020   159252186.370         177.781          48.500    38891014.770   152616677.882         170.375          53.900  
J02  37121401.719   195074426.586         342.191          42.000    37121401.715   195074460.828         342.191          44.900    37121398.648   195074450.964         342.191          43.100    37121405.117   152006119.103         266.645          44.500    37121407.801   145672540.580         255.531          47.300  
J07  37265858.953   195833374.685          -0.484          39.000    37265858.379   195833371.941          -0.484          42.100    37265853.020   195833423.909          -0.484          44.700    37265859.758   152597421.011          -0.375          48.000    37265863.285   146239193.676          -0.359          51.500  
J03  37512989.602   197132030.362        -458.129          38.400    37512989.344   197132010.582        -458.129          41.100    37512986.883   197131993.682        -458.129          39.100    37512995.996   153609339.680        -356.984          38.300    37513001.070   147208945.523        -342.109          43.700  
G18  21621198.117   113620187.833          49.715          44.600    21621200.488    88535218.389          38.738          35.500    21621200.477    88535214.136          38.738          47.800    21621203.605    84846247.134          37.125          51.800  
G05  21364357.945   112270456.224       -2088.633          47.000    21364359.891    87483517.796       -1627.508          39.500    21364360.137    87483507.555       -1627.508          46.300                                                                  
G14  24106033.555   126678087.815        -361.145          39.000    24106036.273    98710189.279        -281.410          23.200    24106036.250    98710201.030        -281.410          39.800    24106040.020    94597277.098        -269.684          44.100  
G23  22729422.664   119443944.572        2997.152          40.800    22729424.813    93073243.027        2335.445          29.600    22729424.188    93073229.771        2335.445          44.300    22729428.070    89195180.769        2238.133          48.500  
E27  25775995.641   135453820.536        2542.047          43.600    25775998.238   103789326.952        1947.801          46.600    25775998.625   101150620.279        1898.281          47.200  
E33  25422376.297   133595496.856        -728.000          44.200    25422375.883   102365382.732        -557.816          48.500    25422376.508    99762872.648        -543.637          48.000  
E26  25416375.906   133563923.076       -2687.246          43.400    25416378.375   102341184.952       -2059.059          45.900    25416379.859    99739290.743       -2006.711          46.100  
E30  24901719.609   130859464.648         244.715          44.600    24901720.074   100268951.719         187.512          46.400    24901721.172    97719743.572         182.742          46.600  
E07  24561237.422   129070213.016        -989.230          47.600    24561238.156    98897977.658        -757.980          51.400    24561238.371    96383626.943        -738.711          51.000  
E08  26371723.164   138584301.048       -1879.863          35.400    26371724.918   106187956.765       -1440.414          34.100    26371726.035   103488264.054       -1403.793          35.700  
> 2021 09 22 06 30 12.0000000  0 18                     
G13  21534643.516   113165417.381       -1981.672          46.600    21534644.242    88180901.556       -1544.160          34.900                                                                                                                                  
G20  23507517.797   123532841.266       -3328.859          39.200    23507520.867    96259318.766       -2593.918          20.100                                                                                                                                  
G15  20325196.133   106809718.158        -315.289          50.000    20325196.797    83228366.045        -245.680          53.400    20325196.477    83228347.801        -245.680          48.800                                                                  
G24  20622619.852   108372852.667        2160.988          46.200    20622624.117    84446465.594        1683.887          51.700    20622624.281    84446429.343        1683.887          49.400    20622624.445    80927840.131        1613.727          55.000  
J01  38890967.906   204373409.701         228.273          46.200    38890968.102   204373411.932         228.273          49.700    38890965.824   204373433.705         228.273          47.400    38890967.688   159252008.608         177.875          48.600    38890971.340   152616507.538         170.465          53.800  
