     3.04           OBSERVATION DATA    M                   RINEX VERSION / TYPE
sbf2rin-13.8.0                          20210923 060350 UTC PGM / RUN BY / DATE 
SEPT                                                        MARKER NAME         
Unknown                                                     MARKER NUMBER       
Unknown             Unknown                                 OBSERVER / AGENCY   
3058611             SEPT MOSAIC-X5      4.10.0              REC # / TYPE / VERS 
Unknown             JAVRINGANT_DM   SCIS                    ANT # / TYPE        
 -3962108.2258  3381309.0271  3668678.5241                  APPROX POSITION XYZ 
        0.0000        0.0000        0.0000                  ANTENNA: DELTA H/E/N
G   14 C1C L1C S1C C1W S1W C2W L2W S2W C2L L2L S2L C5Q L5Q  SYS / # / OBS TYPES 
       S5Q                                                  SYS / # / OBS TYPES 
E   12 C1C L1C S1C C5Q L5Q S5Q C7Q L7Q S7Q C8Q L8Q S8Q      SYS / # / OBS TYPES 
J    9 C1C L1C S1C C2L L2L S2L C5Q L5Q S5Q                  SYS / # / OBS TYPES 
SEPTENTRIO RECEIVERS OUTPUT ALIGNED CARRIER PHASES.         COMMENT             
NO FURTHER PHASE SHIFT APPLIED IN THE RINEX ENCODER.        COMMENT             
G L1C                                                       SYS / PHASE SHIFT   
G L2W                                                       SYS / PHASE SHIFT   
G L2L  0.00000                                              SYS / PHASE SHIFT   
G L5Q  0.00000                                              SYS / PHASE SHIFT   
E L1C  0.00000                                              SYS / PHASE SHIFT   
E L5Q  0.00000                                              SYS / PHASE SHIFT   
E L7Q  0.00000                                              SYS / PHASE SHIFT   
E L8Q  0.00000                                              SYS / PHASE SHIFT   
J L1C                                                       SYS / PHASE SHIFT   
J L2L  0.00000                                              SYS / PHASE SHIFT   
J L5Q  0.00000                                              SYS / PHASE SHIFT   
     1.000                                                  INTERVAL            
  2021     9    22     6    30    0.0000000     GPS         TIME OF FIRST OBS   
  2021     9    22     6    35   59.0000000     GPS         TIME OF LAST OBS    
   139                                                      # OF SATELLITES     
DBHZ                                                        SIGNAL STRENGTH UNIT
                                                            END OF HEADER       
> 2021 09 22 06 30  0.0000000  0 19
E02  28187222.822 4                        25.625    28187226.047 5                        30.906    28187223.439 4                        27.656    28187223.318 5 112055499.17105        32.313
E07  24441483.004 7 128440856.81507        45.344    24441485.906 8  95913637.91308        51.688    24441485.132 8  98415729.97308        51.938    24441485.388 9  97164683.48509        54.781
E12  26099534.386 6 137153974.24406        37.313    26099533.581 6 102420176.61206        38.375    26099533.946 6 105092008.43206        39.313    26099533.471 6 103756092.06906        41.875
E19  26939612.169 6 141568623.92706        36.188    26939615.970 6 105716852.53106        37.031    26939614.750 6 108474682.13906        37.125    26939615.023 6 107095766.87206        40.125
E26  25299917.342 7 132951957.12607        42.938    25299923.778 7  99282325.36707        44.813    25299923.264 7 101872296.42407        47.000    25299923.429 8 100577310.43508        49.031
E27  25665290.794 7 134872019.93607        44.563    25665295.269 7 100716137.21607        45.813    25665294.986 8 103343518.68208        48.375    25665295.032 8 102029826.98908        50.188
E30  24783248.255 7 130236852.89307        42.781    24783251.162 7  97254806.16107        46.750    24783250.298 7  99791885.99507        46.469    24783250.698 8  98523347.12208        49.625
E33  25310298.517 7 133006516.66907        43.656    25310300.306 7  99323051.76307        46.813    25310300.106 8 101914086.10208        48.531    25310300.142 8 100618569.97408        50.688
G05  21243381.127 7 111634716.53707        46.813    21243380.949 6        38.875    21243380.526 6  86988086.04906        38.875    21243380.757 7  86988079.06407        43.063
G13  21412195.575 7 112521844.88607        46.844    21412195.097 6        36.219    21412194.446 6  87679350.16806        36.219
G15  20209179.675 7 106199955.93107        47.313    20209179.358 8        51.313    20209178.281 8  82753208.87608        51.313    20209178.607 7  82753208.89307        44.906
G18  21510316.649 7 113037475.38907        46.094    21510316.408 5        35.219    21510316.354 5  88081148.92105        35.219    21510316.451 7  88081147.93607        43.344    21510319.671 8  84411111.87908        49.563
G20  23383036.253 7 122878673.35207        42.938    23383035.185 4        26.719    23383037.609 4  95749609.92904        26.719
G23  22623284.507 7 118886165.59407        44.844    22623284.315 5        32.375    22623285.111 5  92638570.54805        32.375    22623284.666 7  92638570.55007        42.281    22623287.203 7  88778643.20107        45.719
G24  20515367.168 7 107808985.93107        47.625    20515366.891 8        52.594    20515369.560 8  84007011.08308        52.594    20515369.267 7  84007003.08907        46.500    20515369.010 8  80506718.73708        53.438
J01  38776697.572 7 203772919.27207        46.281    38776696.536 7 158784086.34307        45.188    38776698.060 8 152168092.72608        50.844
J02  37007766.743 7 194477127.96007        43.375    37007769.735 7 151540630.98807        43.438    37007770.774 7 145226448.45407        47.813
J03  37400250.354 6 196539620.03406        40.688    37400257.850 6 153147792.03206        38.844    37400259.545 7 146766648.88207        42.781
J07  37153709.515 6 195244056.48106        39.781    37153710.724 7 152138229.95207        44.594    37153712.136 8 145799147.00808        50.375
> 2021 09 22 06 30  1.0000000  0 19
E02  28187603.004 4                        24.313    28187606.912 5                        31.031    28187604.068 4                        27.156    28187604.010 5 112057012.17005        32.281
E07  24441696.967 7 128441981.10007        45.500    24441699.867 8  95914477.47008        51.813    24441699.083 8  98416591.43608        51.844    24441699.337 9  97165533.99509        54.781
E12  26099243.713 6 137152446.34606        37.250    26099242.859 6 102419035.65806        38.438    26099243.164 6 105090837.70606        39.094    26099242.713 6 103754936.23106        41.750
E19  26939297.801 5 141566971.70205        35.969    26939301.520 6 105715618.70606        37.344    26939300.379 6 108473416.16106        37.094    26939300.597 6 107094516.97206        40.219
E26  25300454.526 7 132954780.48507        42.813    25300461.021 7  99284433.72107        44.969    25300460.526 7 101874459.78207        46.906    25300460.699 8 100579446.29108        49.000
E27  25664832.732 7 134869612.50007        44.625    25664837.194 7 100714339.46407        45.781    25664836.833 8 103341674.02708        48.094    25664836.910 8 102028005.78608        50.063
E30  24783226.959 7 130236740.96207        42.688    24783229.796 7  97254722.57207        46.719    24783228.995 7  99791800.23407        46.531    24783229.333 8  98523262.44608        49.656
E33  25310462.742 7 133007379.22607        43.656    25310464.427 7  99323695.88507        46.875    25310464.252 8 101914747.02008        48.469    25310464.281 8 100619222.49408        50.688
G05  21243804.003 7 111636938.99807        46.875    21243803.825 6        38.906    21243803.443 6  86989817.83706        38.906    21243803.711 7  86989810.84607        43.344
G13  21412598.002 7 112523959.85107        47.094    21412597.524 6        36.250    21412596.896 6  87680998.19006        36.250
G15  20209264.421 7 106200401.91107        47.375    20209264.108 8        51.375    20209263.161 8  82753556.39108        51.375    20209263.390 7  82753556.40907        45.000
G18  21510332.324 7 113037558.14107        46.031    21510332.083 5        35.281    21510332.103 5  88081213.40705        35.281    21510332.304 7  88081212.40907        43.500    21510335.403 8  84411173.67008        49.563
G20  23383695.592 7 122882138.46207        43.000    23383694.524 4        26.875    23383697.049 4  95752310.00504        26.875
G23  22622739.754 7 118883303.26307        44.750    22622739.558 5        32.406    22622740.436 5  92636340.16005        32.406    22622739.869 7  92636340.16707        42.375    22622742.481 7  88776505.75207        45.688
G24  20514980.591 7 107806954.73207        47.688    20514980.314 8        52.656    20514983.020 8  84005428.33208        52.656    20514982.741 7  84005420.34107        46.719    20514982.500 8  80505201.93408        53.438
J01  38776680.450 7 203772829.57607        46.375    38776679.424 7 158784016.45107        45.156    38776680.987 8 152168025.74308        50.875
J02  37007727.745 7 194476922.89007        43.750    37007730.670 7 151540471.18907        43.406    37007731.730 7 145226295.31107        47.813
J03  37400363.658 6 196540215.69906        40.875    37400370.962 6 153148256.16506        38.781    37400372.913 7 146767093.68807        42.813
J07  37153735.763 6 195244194.59306        39.844    37153737.006 7 152138337.56607        44.531    37153738.421 8 145799250.14408        50.469
> 2021 09 22 06 30  2.0000000  0 19
E02  28187983.155 4                        25.250    28187987.680 5                        31.125    28187984.768 4                        27.156    28187984.742 5 112058525.67705        32.250
E07  24441910.970 7 128443105.79607        45.281    24441913.893 8  95915317.34008        51.719    24441913.121 8  98417453.21108        51.844    24441913.362 9  97166384.81709        54.750
E12  26098952.994 6 137150919.17706        37.625    26098952.252 6 102417895.23006        38.344    26098952.479 6 105089667.53106        39.063    26098952.084 6 103753780.92806        41.656
E19  26938983.230 6 141565319.81406        36.313    26938987.178 6 105714385.16306        37.063    26938986.144 6 108472150.44306        37.000    26938986.224 6 107093267.34206        40.063
E26  25300991.921 7 132957604.36907        43.219    25300998.348 7  99286542.45007        44.875    25300997.877 7 101876623.52607        46.938    25300998.063 8 100581582.52908        48.938
E27  25664374.777 7 134867205.60507        44.531    25664379.252 7 100712542.10507        45.750    25664378.770 8 103339829.78108        48.125    25664378.899 8 102026184.98308        50.063
E30  24783205.668 7 130236629.83307        42.031    24783208.622 7  97254639.58307        46.625    24783207.860 7  99791715.07307        46.594    24783208.142 8  98523178.37208        49.625
E33  25310627.113 7 133008242.59007        43.656    25310628.702 7  99324340.59607        46.813    25310628.533 8 101915408.55308        48.438    25310628.573 8 100619875.61608        50.656
G05  21244227.056 7 111639162.20507        46.938    21244226.878 6        38.906    21244226.508 6  86991550.20406        38.906    21244226.738 7  86991543.21107        43.313
G13  21413000.629 7 112526075.31707        46.875    21413000.151 6        36.156    21412999.432 6  87682646.60506        36.156
G15  20209349.503 7 106200848.51007        47.250    20209349.186 8        51.406    20209348.162 8  82753904.39108        51.406    20209348.436 7  82753904.39707        45.063
G18  21510348.286 7 113037641.87907        45.938    21510348.045 5        35.281    21510348.049 5  88081278.65505        35.281    21510348.155 7  88081277.65607        43.281    21510351.329 8  84411236.20508        49.625
G20  23384354.941 7 122885604.15407        42.844    23384353.868 4        26.938    23384356.595 4  95755010.53904        26.938
G23  22622195.141 7 118880441.41407        44.625    22622194.945 5        32.438    22622195.864 5  92634110.15005        32.438    22622195.444 7  92634110.14407        42.500    22622197.861 7  88774368.65307        45.719
G24  20514594.112 7 107804924.40307        47.719    20514593.835 8        52.656    20514596.640 8  84003846.25908        52.656    20514596.327 7  84003838.26107        46.656    20514596.120 8  80503685.77608        53.406
J01  38776663.460 7 203772740.13407        46.344    38776662.436 7 158783946.75407        45.219    38776663.964 8 152167958.95008        50.813
J02  37007688.795 7 194476718.21107        43.844    37007691.625 7 151540311.68607        43.313    37007692.740 7 145226142.47007        47.875
J03  37400476.995 6 196540811.68406        40.594    37400484.519 6 153148720.56106        38.938    37400486.316 7 146767538.73907        42.813
J07  37153762.358 6 195244333.04906        39.594    37153763.402 7 152138445.44207        44.500    37153764.765 8 145799353.53108        50.406
> 2021 09 22 06 30  3.0000000  0 19
E02  28188363.327 4                        24.094    28188368.148 5                        30.844    28188365.451 4                        27.125    28188365.509 5 112060039.15505        32.063
E07  24442125.008 7 128444230.18007        45.438    24442127.858 8  95916156.97908        51.688    24442127.092 8  98418314.75708        51.875    24442127.330 9  97167235.41009        54.750
E12  26098662.285 6 137149392.00306        37.219    26098661.579 6 102416754.81006        38.188    26098661.921 6 105088497.38506        38.906    26098661.465 6 103752625.64706        41.531
E19  26938669.025 6 141563667.60206        36.156    26938672.767 6 105713151.36606        37.031    26938671.729 6 108470884.43606        36.875    26938671.806 6 107092017.44106        40.031
E26  25301529.185 7 132960428.05407        42.844    25301535.632 7  99288651.04507        44.719    25301535.200 7 101878787.12907        47.031    25301535.396 8 100583718.62708        48.969
E27  25663916.723 7 134864798.52407        44.563    25663921.215 7 100710744.60607        45.656    25663920.661 8 103337985.39308        48.219    25663920.853 8 102024364.04008        50.063
E30  24783184.483 7 130236518.79807        42.313    24783187.511 7  97254556.66607        46.688    24783186.679 7  99791629.98607        46.406    24783187.004 8  98523094.37008        49.563
E33  25310791.477 7 133009106.03507        43.594    25310793.024 7  99324985.38407        46.813    25310792.826 8 101916070.15808        48.469    25310792.892 8 100620528.81308        50.656
G05  21244650.193 7 111641385.44707        47.094    21244650.015 6        38.906    21244649.600 6  86993282.59506        38.906    21244649.850 7  86993275.61207        43.656
G13  21413403.117 7 112528190.56407        47.125    21413402.639 6        36.156    21413401.922 6  87684294.84706        36.156
G15  20209434.443 7 106201295.03907        47.281    20209434.130 8        51.406    20209433.150 8  82754252.33408        51.406    20209433.505 7  82754252.34007        45.094
G18  21510364.267 7 113037725.93407        46.031    21510364.026 5        35.250    21510364.035 5  88081344.15105        35.250    21510364.077 7  88081343.15607        43.281    21510367.330 8  84411298.96308        49.563
G20  23385014.287 7 122889069.68607        42.969    23385013.219 4        26.813    23385016.128 4  95757710.95004        26.813
G23  22621650.510 7 118877579.33907        44.469    22621650.309 5        32.469    22621651.256 5  92631879.96105        32.469    22621650.916 7  92631879.95107        42.250    22621653.240 7  88772231.37907        45.594
G24  20514207.773 7 107802894.22307        47.875    20514207.496 8        52.656    20514210.288 8  84002264.30008        52.656    20514210.142 7  84002256.30207        46.688    20514209.769 8  80502169.73108        53.469
J01  38776646.330 7 203772650.23707        46.344    38776645.443 7 158783876.70207        45.313    38776646.872 8 152167891.81308        50.875
J02  37007649.764 7 194476513.21707        43.875    37007652.652 7 151540151.95607        43.438    37007653.753 7 145225989.38507        47.750
J03  37400590.220 6 196541407.28206        40.750    37400598.153 6 153149184.66106        38.906    37400599.722 7 146767983.50507        42.688
J07  37153788.703 6 195244471.11006        39.656    37153789.663 7 152138553.03007        44.781    37153791.032 8 145799456.63308        50.438
> 2021 09 22 06 30  4.0000000  0 19
E02  28188744.426 3                        23.656    28188748.795 5                        30.906    28188746.147 4                        26.750    28188746.398 5 112061553.00405        32.125
E07  24442338.985 7 128445354.78107        45.469    24442341.861 8  95916996.78308        51.688    24442341.114 8  98419176.46708        51.938    24442341.341 9  97168086.16609        54.781
E12  26098371.666 6 137147865.37506        37.188    26098370.993 6 102415614.79906        38.188    26098371.398 6 105087327.61506        38.906    26098370.952 6 103751470.75706        41.563
E19  26938354.684 6 141562015.52206        36.156    26938358.396 6 105711917.67806        36.969    26938357.359 6 108469618.55906        36.781    26938357.424 6 107090767.65706        39.938
E26  25302066.551 7 132963252.06207        42.938    25302072.994 7  99290759.88307        44.719    25302072.546 7 101880950.97707        47.094    25302072.786 8 100585854.97108        49.000
E27  25663458.669 7 134862391.78307        44.469    25663463.282 7 100708947.36407        45.844    25663462.663 8 103336141.27608        48.344    25663462.869 8 102022543.36108        50.188
E30  24783163.499 7 130236408.37107        42.469    24783166.458 7  97254474.20307        46.563    24783165.597 7  99791545.38407        46.906    24783165.956 8  98523010.83508        49.813
E33  25310955.875 7 133009970.11407        43.438    25310957.477 7  99325630.62807        46.813    25310957.233 8 101916732.23808        48.469    25310957.314 8 100621182.47408        50.656
G05  21245073.360 7 111643609.24307        46.906    21245073.182 6        38.906    21245072.794 6  86995015.42306        38.906    21245073.216 7  86995008.44307        43.563
G13  21413805.638 7 112530306.09507        47.188    21413805.160 6        36.125    21413804.471 6  87685943.31306        36.125
G15  20209519.511 7 106201742.00307        47.344    20209519.194 8        51.406    20209518.214 8  82754600.61808        51.406    20209518.591 7  82754600.63007        45.031
G18  21510380.336 7 113037810.78207        45.969    21510380.095 5        35.250    21510380.186 5  88081410.26605        35.250    21510380.322 7  88081409.26907        43.344    21510383.482 8  84411362.33508        49.500
G20  23385673.700 7 122892535.59607        43.219    23385672.627 4        26.844    23385675.683 4  95760411.65204        26.844
G23  22621105.932 7 118874717.54007        44.469    22621105.736 5        32.438    22621106.693 5  92629649.99105        32.438    22621106.241 7  92629649.99307        42.281    22621108.680 7  88770094.33607        45.406
G24  20513821.594 7 107800864.71307        47.906    20513821.317 8        52.656    20513824.065 8  84000682.86608        52.656    20513824.031 7  84000674.87407        46.688    20513823.569 8  80500654.20008        53.469
J01  38776629.300 7 203772560.38807        46.281    38776628.362 7 158783806.70007        45.406    38776629.777 8 152167824.72408        50.938
J02  37007610.775 7 194476308.41707        43.594    37007613.469 7 151539992.38907        43.344    37007614.799 7 145225836.46707        47.750
J03  37400703.762 6 196542003.03006        40.594    37400711.418 6 153149648.88006        38.938    37400713.127 7 146768428.36807        42.688
J07  37153815.012 6 195244609.32706        40.000    37153815.915 7 152138660.73007        44.688    37153817.335 8 145799559.84808        50.469
> 2021 09 22 06 30  5.0000000  0 19
E02  28189125.645 3                        23.781    28189129.665 5                        31.000    28189127.098 4                        27.031    28189127.367 5 112063067.26805        32.344
E07  24442552.972 7 128446479.63507        45.500    24442555.925 8  95917836.77008        51.750    24442555.174 8  98420038.36908        52.000    24442555.398 9  97168937.11109        54.844
E12  26098081.138 6 137146339.30606        37.219    26098080.590 6 102414475.20706        38.031    26098081.022 6 105086158.29206        39.250    26098080.520 6 103750316.30006        41.594
E19  26938040.232 6 141560363.64406        36.125    26938044.073 6 105710684.13706        37.125    26938042.837 6 108468352.85806        36.781    26938043.042 6 107089518.03806        40.031
E26  25302604.026 7 132966076.40707        43.156    25302610.438 7  99292868.98207        44.781    25302610.012 7 101883115.08707        47.031    25302610.244 8 100587991.57308        49.000
E27  25663000.679 7 134859985.40307        44.406    25663005.347 7 100707150.41107        45.875    25663004.743 8 103334297.43508        48.313    25663004.966 8 102020722.96208        50.188
E30  24783142.452 7 130236298.58707        42.094    24783145.583 7  97254392.22507        46.688    24783144.698 7  99791461.27007        46.563    24783145.092 8  98522927.79108        49.625
E33  25311120.465 7 133010834.80207        43.375    25311122.019 7  99326276.35007        46.781    25311121.796 8 101917394.80408        48.469    25311121.860 8 100621836.61808        50.625
G05  21245496.621 7 111645833.63107        47.031    21245496.443 6        38.875    21245496.096 6  86996748.71106        38.875    21245496.515 7  86996741.72907        43.719
G13  21414208.262 7 112532421.94807        47.094    21414207.784 6        36.031    21414207.078 6  87687592.02706        36.031
G15  20209604.689 7 106202189.43107        47.406    20209604.376 8        51.344    20209603.371 8  82754949.26508        51.344    20209603.796 7  82754949.28007        45.094
G18  21510396.646 7 113037896.48607        45.906    21510396.405 5        35.188    21510396.517 5  88081477.04805        35.188    21510396.623 7  88081476.04407        43.281    21510399.780 8  84411426.33008        49.563
G20  23386333.320 7 122896001.91307        43.531    23386332.247 4        26.688    23386335.310 4  95763112.67504        26.688
G23  22620561.319 7 118871856.06407        44.563    22620561.118 5        32.438    22620562.192 5  92627420.27105        32.438    22620561.858 7  92627420.27307        42.219    22620564.161 7  88767957.52107        45.438
G24  20513435.450 7 107798835.92907        47.906    20513435.173 8        52.594    20513437.985 8  83999101.99508        52.594    20513437.914 7  83999094.00607        46.750    20513437.491 8  80499139.19608        53.469
J01  38776612.282 7 203772470.63307        46.406    38776611.225 7 158783736.75407        45.344    38776612.709 8 152167757.69908        50.875
J02  37007571.824 7 194476103.88007        43.719    37007574.473 7 151539832.99707        43.531    37007575.872 7 145225683.71707        47.781
J03  37400817.012 6 196542598.94206        40.500    37400824.801 6 153150113.20806        39.094    37400826.474 7 146768873.36107        42.656
J07  37153841.401 6 195244747.72206        39.688    37153842.228 7 152138768.56707        44.875    37153843.686 8 145799663.19008        50.469
> 2021 09 22 06 30  6.0000000  0 19
E02  28189507.795 4                        24.313    28189510.701 5                        31.063    28189508.246 4                        26.313    28189508.403 5 112064581.82705        31.938
E07  24442767.030 7 128447604.64107        45.469    24442770.001 8  95918676.87608        51.625    24442769.311 8  98420900.38808        51.813    24442769.481 9  97169788.17409        54.688
E12  26097790.744 6 137144813.72906        37.438    26097790.259 6 102413335.97306        37.844    26097790.719 6 105084989.33906        38.969    26097790.214 6 103749162.20406        41.406
E19  26937725.783 6 141558711.84806        36.219    26937729.735 6 105709450.67406        36.844    26937728.393 6 108467087.20606        36.500    26937728.705 6 107088268.48006        39.719
E26  25303141.553 7 132968901.04907        43.000    25303147.980 7  99294978.27607        44.563    25303147.519 7 101885279.40907        46.875    25303147.747 8 100590128.38208        48.813
E27  25662542.788 7 134857579.31207        44.563    25662547.510 7 100705353.65607        45.656    25662546.879 8 103332453.81108        48.313    25662547.103 8 102018902.77308        50.125
E30  24783121.572 6 130236189.36706        41.969    24783124.795 7  97254310.66907        46.594    24783123.905 7  99791377.57107        46.313    24783124.334 8  98522845.16308        49.469
E33  25311285.180 7 133011700.08107        43.281    25311286.680 7  99326922.49507        46.625    25311286.482 8 101918057.80108        48.344    25311286.510 8 100622491.18808        50.531
G05  21245920.034 7 111648058.52007        46.875    21245919.856 6        38.875    21245919.496 6  86998482.39106        38.875    21245919.967 7  86998475.39207        43.688
G13  21414610.957 7 112534538.06007        47.219    21414610.479 6        36.000    21414609.726 6  87689240.94906        36.000
G15  20209689.993 7 106202637.25207        47.438    20209689.680 8        51.344    20209688.600 8  82755298.21608        51.344    20209688.984 7  82755298.22807        45.063
G18  21510413.057 7 113037982.93307        46.125    21510412.821 5        35.188    21510412.977 5  88081544.41105        35.188    21510412.991 7  88081543.41407        43.375    21510416.243 8  84411490.88908        49.625
G20  23386993.010 7 122899468.54607        43.219    23386991.942 4        26.750    23386994.987 4  95765813.94504        26.750
G23  22620016.834 7 118868994.82907        44.406    22620016.633 5        32.406    22620017.741 5  92625190.73605        32.406    22620017.362 7  92625190.74407        42.250    22620019.686 7  88765820.87407        45.531
G24  20513049.547 7 107796807.75407        47.938    20513049.270 8        52.563    20513052.017 8  83997521.60208        52.563    20513051.989 7  83997513.61407        46.719    20513051.532 8  80497624.65308        53.438
J01  38776595.239 7 203772380.87907        46.375    38776594.115 7 158783666.81507        45.406    38776595.626 8 152167690.67608        50.875
J02  37007532.806 7 194475899.47407        43.844    37007535.457 7 151539673.72307        43.500    37007536.974 7 145225531.08407        47.781
J03  37400930.540 6 196543194.92806        40.188    37400938.204 6 153150577.62406        39.406    37400939.854 7 146769318.40007        42.688
J07  37153867.773 6 195244886.17506        39.969    37153868.604 7 152138876.47207        44.844    37153870.046 8 145799766.59708        50.469
> 2021 09 22 06 30  7.0000000  0 19
E02  28189888.929 4                        24.688    28189891.912 5                        30.813    28189889.210 4                        26.313    28189889.470 5 112066096.42805        31.750
E07  24442981.090 7 128448729.45107        45.594    24442984.040 8  95919516.83008        51.563    24442983.365 8  98421762.25308        51.938    24442983.520 9  97170639.08409        54.719
E12  26097500.401 6 137143288.26106        37.313    26097500.012 6 102412196.80606        38.156    26097500.391 6 105083820.46606        39.156    26097499.920 6 103748008.18706        41.656
E19  26937411.449 6 141557059.81806        36.250    26937415.342 6 105708217.01806        36.750    26937413.974 6 108465821.36806        36.750    26937414.314 6 107087018.73406        39.781
E26  25303679.029 7 132971725.56907        43.094    25303685.491 7  99297087.49707        44.594    25303684.998 7 101887443.65507        46.969    25303685.236 8 100592265.11608        48.875
E27  25662084.935 7 134855173.14307        44.594    25662089.629 7 100703556.84307        45.719    25662089.030 8 103330610.12208        48.281    25662089.232 8 102017082.52208        50.125
E30  24783100.839 7 130236080.31707        42.063    24783104.063 7  97254229.24007        46.781    24783103.109 7  99791294.03107        46.031    24783103.555 8  98522762.67908        49.469
E33  25311449.843 7 133012565.53507        43.094    25311451.384 7  99327568.77307        46.719    25311451.152 8 101918720.94208        48.438    25311451.213 8 100623145.89908        50.625
G05  21246343.386 7 111650283.53107        47.000    21246343.208 6        38.875    21246342.905 6  87000216.16506        38.875    21246343.330 7  87000209.16807        43.688
G13  21415013.625 7 112536654.00107        47.188    21415013.147 6        36.000    21415012.346 6  87690889.73406        36.000
G15  20209775.264 7 106203085.08507        47.406    20209774.947 8        51.344    20209773.834 8  82755647.17808        51.344    20209774.259 7  82755647.18407        45.000
G18  21510429.571 7 113038069.78007        46.000    21510429.330 5        35.188    21510429.486 5  88081612.08305        35.188    21510429.649 7  88081611.09107        43.344    21510432.756 8  84411555.73908        49.719
G20  23387652.658 7 122902935.14707        43.313    23387651.585 4        26.719    23387654.654 4  95768515.19104        26.719
G23  22619472.305 7 118866133.44707        44.344    22619472.104 5        32.344    22619473.263 5  92622961.09005        32.344    22619472.772 7  92622961.09407        42.125    22619475.159 7  88763684.13707        45.531
G24  20512663.693 7 107794779.84507        47.875    20512663.416 8        52.563    20512666.102 8  83995941.41408        52.563    20512666.101 7  83995933.42707        46.813    20512665.643 8  80496110.30608        53.438
J01  38776578.067 7 203772290.75307        46.281    38776576.991 7 158783596.59907        45.469    38776578.456 8 152167623.37608        50.938
J02  37007494.019 7 194475694.85107        43.531    37007496.668 7 151539514.27607        43.375    37007498.031 7 145225378.27907        47.844
J03  37401043.937 6 196543790.61106        40.344    37401051.558 6 153151041.79106        39.219    37401053.232 7 146769763.24307        42.625
J07  37153894.171 6 195245024.39106        39.375    37153894.936 7 152138984.15007        44.750    37153896.336 8 145799869.79308        50.531
> 2021 09 22 06 30  8.0000000  0 19
E02  28190270.224 4                        24.313    28190272.796 5                        30.969    28190270.067 4                        26.875    28190270.555 5 112067611.25805        32.094
E07  24443195.065 7 128449854.24507        45.688    24443198.076 8  95920356.76608        51.625    24443197.437 8  98422624.10408        51.813    24443197.554 9  97171489.97709        54.688
E12  26097209.823 6 137141763.10706        37.594    26097209.726 6 102411057.90506        38.094    26097210.246 6 105082651.84106        39.125    26097209.708 6 103746854.42206        41.625
E19  26937097.140 6 141555407.74306        36.219    26937100.873 6 105706983.32506        36.875    26937099.606 6 108464555.47106        36.813    26937099.932 6 107085768.93806        39.875
E26  25304216.501 7 132974550.18707        42.969    25304222.982 7  99299196.77307        44.719    25304222.523 7 101889607.96907        46.906    25304222.729 8 100594401.91208        48.906
E27  25661627.121 7 134852767.08507        44.500    25661631.760 7 100701760.11107        45.625    25661631.200 8 103328766.52008        48.281    25661631.378 8 102015262.35608        50.094
E30  24783080.212 7 130235971.67807        42.219    24783083.401 7  97254148.10107        46.656    24783082.463 7  99791210.77807        46.406    24783082.918 8  98522680.48308        49.563
E33  25311614.545 7 133013431.37707        42.844    25311616.109 7  99328215.34407        46.719    25311615.918 8 101919384.37808        48.375    25311615.979 8 100623800.90208        50.563
G05  21246766.854 7 111652508.87207        46.719    21246766.676 6        38.719    21246766.390 6  87001950.19506        38.719    21246766.712 7  87001943.19607        43.656
G13  21415416.283 7 112538770.03107        47.156    21415415.805 5        35.906    21415415.007 5  87692538.58705        35.906
G15  20209860.554 7 106203533.12507        47.344    20209860.241 8        51.250    20209859.108 8  82755996.30208        51.250    20209859.558 7  82755996.30807        45.156
G18  21510446.234 7 113038157.21507        45.844    21510445.993 5        35.094    21510446.120 5  88081680.21305        35.094    21510446.326 7  88081679.21707        43.344    21510449.405 8  84411621.03408        49.656
G20  23388312.419 7 122906401.87307        43.219    23388311.342 4        26.656    23388314.334 4  95771216.53004        26.656
G23  22618927.762 7 118863272.15207        44.406    22618927.561 5        32.250    22618928.785 5  92620731.51005        32.250    22618928.201 7  92620731.50907        42.406    22618930.651 7  88761547.44707        45.531
G24  20512277.870 7 107792752.38307        47.875    20512277.593 8        52.469    20512280.273 8  83994361.57408        52.469    20512280.183 7  83994353.58107        46.781    20512279.825 8  80494596.28608        53.406
J01  38776560.827 7 203772200.46307        46.406    38776559.837 7 158783526.23307        45.344    38776561.257 8 152167555.95208        50.938
J02  37007455.023 7 194475490.20307        44.125    37007457.804 7 151539354.82307        43.500    37007459.079 7 145225225.46107        47.875
J03  37401157.335 6 196544386.22906        40.219    37401165.113 6 153151505.89706        39.094    37401166.599 7 146770208.00507        42.594
J07  37153920.444 6 195245162.49206        39.375    37153921.191 7 152139091.77107        44.844    37153922.652 8 145799972.93208        50.500
> 2021 09 22 06 30  9.0000000  0 19
E02  28190651.622 3                        23.000    28190654.006 5                        30.656    28190651.107 4                        27.656    28190651.819 5 112069126.59805        32.281
E07  24443409.172 7 128450979.43507        45.875    24443412.192 8  95921197.00608        51.625    24443411.535 8  98423486.26108        51.938    24443411.687 9  97172341.17609        54.719
E12  26096919.661 6 137140238.65906        37.406    26096919.678 6 102409919.51806        38.063    26096920.175 6 105081483.75906        39.250    26096919.634 6 103745701.18906        41.688
E19  26936782.857 5 141553756.00805        35.938    26936786.558 6 105705749.88906        36.656    26936785.276 6 108463289.87706        36.438    26936785.618 6 107084519.42506        39.563
E26  25304754.246 7 132977375.31507        43.125    25304760.569 7  99301306.45007        44.750    25304760.129 7 101891772.67207        46.969    25304760.330 8 100596539.10108        48.938
E27  25661169.334 7 134850361.55207        44.406    25661174.010 7 100699963.77507        45.719    25661173.481 8 103326923.32108        48.313    25661173.618 8 102013442.58808        50.125
E30  24783059.764 7 130235863.83907        42.375    24783062.949 7  97254067.57007        46.656    24783061.914 7  99791128.14107        46.438    24783062.402 8  98522598.89908        49.594
E33  25311779.506 7 133014298.02007        42.938    25311781.001 7  99328862.51007        46.750    25311780.828 8 101920048.42908        48.500    25311780.906 8 100624456.51008        50.656
G05  21247190.367 7 111654734.96507        46.656    21247190.189 6        38.719    21247190.031 6  87003684.81406        38.719    21247190.436 7  87003677.81007        43.781
G13  21415818.988 7 112540886.54107        46.938    21415818.510 5        35.875    21415817.757 5  87694187.81605        35.875
G15  20209945.956 7 106203981.80107        47.250    20209945.639 8        51.219    20209944.498 8  82756345.91808        51.219    20209944.960 7  82756345.92507        45.156
G18  21510463.048 7 113038245.65607        45.656    21510462.807 5        35.094    21510462.951 5  88081749.13005        35.094    21510463.163 7  88081748.12307        43.406    21510466.254 8  84411687.07108        49.625
G20  23388972.229 7 122909869.16407        43.125    23388971.161 4        26.719    23388974.145 4  95773918.31404        26.719
G23  22618383.351 7 118860411.31607        44.406    22618383.150 5        32.313    22618384.400 5  92618502.29005        32.313    22618383.981 7  92618502.30707        42.219    22618386.302 7  88759411.12707        45.531
G24  20511892.144 7 107790725.78707        47.688    20511891.867 8        52.438    20511894.604 8  83992782.41108        52.438    20511894.331 7  83992774.40807        46.719    20511894.171 8  80493082.92208        53.469
J01  38776543.688 7 203772110.43007        46.406    38776542.767 7 158783456.07307        45.344    38776544.111 8 152167488.71508        51.031
J02  37007416.209 7 194475285.94007        44.125    37007419.171 7 151539195.65107        43.500    37007420.202 7 145225072.94107        47.844
J03  37401270.676 6 196544982.14906        40.250    37401278.340 6 153151970.25206        39.313    37401279.997 7 146770653.01207        42.719
J07  37153946.837 6 195245300.94706        39.594    37153947.591 7 152139199.65307        44.969    37153949.004 8 145800076.32008        50.563
> 2021 09 22 06 30 10.0000000  0 19
E02  28191033.128 4                        24.656    28191035.060 5                        30.813    28191032.412 4                        27.281    28191033.230 5 112070642.60705        32.125
E07  24443623.315 7 128452105.21707        46.094    24443626.398 8  95922037.68508        51.656    24443625.790 8  98424348.87008        51.875    24443625.913 9  97173192.81909        54.750
E12  26096629.610 6 137138715.11906        37.656    26096629.750 6 102408781.80706        38.000    26096630.310 6 105080316.37206        39.406    26096629.694 6 103744548.63806        41.719
E19  26936468.637 6 141552104.79906        36.281    26936472.337 6 105704516.86406        36.969    26936471.136 6 108462024.65306        36.844    26936471.401 6 107083270.30006        39.969
E26  25305292.052 7 132980201.13407        42.844    25305298.270 7  99303416.64907        44.625    25305297.933 7 101893937.91307        46.969    25305298.060 8 100598676.82108        48.906
E27  25660711.720 7 134847956.72707        44.469    25660716.384 7 100698167.97307        45.844    25660715.849 8 103325080.67208        48.250    25660715.996 8 102011623.36208        50.156
E30  24783039.355 7 130235756.96607        42.250    24783042.655 7  97253987.76107        46.594    24783041.611 7  99791046.26507        46.719    24783042.057 8  98522518.05608        49.719
E33  25311944.685 7 133015165.64407        42.750    25311946.130 7  99329510.40707        46.813    25311945.932 8 101920713.23208        48.594    25311946.007 8 100625112.86008        50.750
G05  21247614.186 7 111656961.98507        46.781    21247614.008 6        38.594    21247613.834 6  87005420.15106        38.594    21247614.093 7  87005413.15307        43.563
G13  21416221.802 7 112543003.71807        47.031    21416221.324 5        35.781    21416220.623 5  87695837.56305        35.781
G15  20210031.495 7 106204431.27507        47.156    20210031.182 8        51.125    20210030.045 8  82756696.15808        51.125    20210030.560 7  82756696.16407        45.188
G18  21510480.082 7 113038335.27107        45.781    21510479.841 5        35.031    21510480.011 5  88081818.95805        35.031    21510480.297 7  88081817.95007        43.313    21510483.306 8  84411753.99508        49.688
G20  23389632.216 7 122913337.21607        43.125    23389631.143 4        26.594    23389634.102 4  95776620.68804        26.594
G23  22617839.221 7 118857551.15507        44.406    22617839.020 5        32.188    22617840.150 5  92616273.59705        32.188    22617839.693 7  92616273.59807        42.219    22617842.050 7  88757275.28407        45.531
G24  20511506.629 7 107788700.23807        47.500    20511506.348 8        52.375    20511509.141 8  83991204.06108        52.375    20511508.821 7  83991196.06507        46.656    20511508.733 8  80491570.34108        53.438
J01  38776526.748 7 203772020.80807        46.281    38776525.751 7 158783386.24407        45.250    38776527.071 8 152167421.79708        51.031
J02  37007377.449 7 194475082.26007        44.125    37007380.461 7 151539036.94507        43.531    37007381.437 7 145224920.83807        47.938
J03  37401384.152 6 196545578.58806        40.219    37401391.923 6 153152434.99506        39.250    37401393.465 7 146771098.40207        42.656
J07  37153973.229 6 195245439.90306        39.344    37153974.038 7 152139307.92707        44.844    37153975.456 8 145800180.08708        50.625
> 2021 09 22 06 30 11.0000000  0 19
E02  28191414.767 3                        23.656    28191416.507 5                        30.938    28191413.506 4                        26.563    28191414.584 5 112072158.70505        32.031
E07  24443837.561 7 128453230.89807        46.031    24443840.610 8  95922878.29108        51.719    24443839.982 8  98425211.40708        52.000    24443840.118 9  97174044.39009        54.813
E12  26096339.591 6 137137191.79806        37.531    26096339.915 6 102407644.27606        38.094    26096340.452 6 105079149.15006        39.313    26096339.838 6 103743396.26206        41.750
E19  26936154.617 5 141550453.45705        35.719    26936158.019 6 105703283.70106        36.750    26936156.917 6 108460759.35006        36.719    26936157.144 6 107082021.06606        39.781
E26  25305829.899 7 132983026.97107        42.938    25305836.014 7  99305526.83707        44.625    25305835.671 7 101896103.16207        47.031    25305835.795 8 100600814.53908        48.906
E27  25660254.158 7 134845551.92007        44.438    25660258.771 7 100696372.18207        45.938    25660258.189 8 103323238.03508        48.344    25660258.388 8 102009804.14808        50.219
E30  24783019.082 7 130235650.39407        42.406    24783022.359 7  97253908.19307        46.813    24783021.361 7  99790964.61207        46.813    24783021.814 8  98522437.44508        49.875
E33  25312109.711 7 133016033.56607        42.781    25312111.310 7  99330158.53507        46.844    25312111.119 8 101921378.26708        48.594    25312111.167 8 100625769.44108        50.719
G05  21248038.113 7 111659189.25707        46.625    21248037.930 6        38.656    21248037.681 6  87007155.68806        38.656    21248037.804 7  87007148.69407        43.625
G13  21416624.555 7 112545120.88007        47.094    21416624.077 5        35.844    21416623.499 5  87697487.29905        35.844
G15  20210117.140 7 106204880.88007        47.219    20210116.823 8        51.219    20210115.614 8  82757046.50008        51.219    20210116.094 7  82757046.50507        45.156
G18  21510497.354 7 113038425.39607        45.469    21510497.113 5        35.094    21510497.164 5  88081889.18705        35.094    21510497.177 7  88081888.18307        43.531    21510500.464 8  84411821.29108        49.625
G20  23390292.179 7 122916805.32707        43.438    23390291.106 4        26.656    23390294.083 4  95779323.10604        26.656
G23  22617294.827 7 118854690.96807        44.344    22617294.626 5        32.281    22617295.891 5  92614044.87805        32.281    22617295.310 7  92614044.88107        42.344    22617297.807 7  88755139.43507        45.469
G24  20511121.188 7 107786675.04507        47.500    20511120.911 8        52.406    20511123.746 8  83989625.99108        52.406    20511123.490 7  83989617.99807        46.625    20511123.355 8  80490058.02908        53.344
J01  38776509.728 7 203771930.94207        46.438    38776508.618 7 158783316.22407        45.344    38776509.980 8 152167354.68508        51.000
J02  37007338.487 7 194474878.46907        44.625    37007341.816 7 151538878.14807        43.625    37007342.652 7 145224768.65807        47.906
J03  37401497.714 6 196546174.85206        40.281    37401505.529 6 153152899.63406        39.906    37401506.910 7 146771543.65607        42.813
J07  37153999.381 6 195245578.67906        39.844    37154000.452 7 152139416.08707        44.844    37154001.869 8 145800283.73208        50.625
> 2021 09 22 06 30 12.0000000  0 19
E02  28191796.711 4                        24.688    28191798.115 5                        31.063    28191795.101 4                        26.781    28191796.161 5 112073675.33705        32.094
E07  24444051.812 7 128454356.98507        46.125    24444054.910 8  95923719.20508        51.719    24444054.286 8  98426074.26308        51.969    24444054.425 9  97174896.27509        54.813
E12  26096049.994 6 137135669.23006        37.625    26096050.145 6 102406507.26306        38.063    26096050.742 6 105077982.50306        39.406    26096050.091 6 103742244.43306        41.750
E19  26935840.440 6 141548802.45006        36.125    26935843.863 6 105702050.82606        36.813    26935842.816 6 108459494.30206        36.563    26935842.968 6 107080772.10706        39.688
E26  25306367.771 7 132985853.31107        43.063    25306373.836 7  99307637.42007        44.688    25306373.533 7 101898268.79607        47.000    25306373.629 8 100602952.64808        48.969
E27  25659796.648 7 134843147.67307        44.563    25659801.248 7 100694576.79707        45.875    25659800.633 8 103321395.81708        48.375    25659800.874 8 102007985.34808        50.219
E30  24782999.029 7 130235544.64907        42.906    24783002.246 7  97253829.23007        46.844    24783001.321 7  99790883.58507        46.938    24783001.687 8  98522357.45008        49.969
E33  25312275.082 7 133016902.30507        42.656    25312276.636 7  99330807.26407        46.781    25312276.419 8 101922043.91808        48.594    25312276.487 8 100626426.63308        50.688
G05  21248462.069 7 111661417.26907        46.969    21248461.891 6        38.656    21248461.662 6  87008891.80006        38.656    21248461.642 7  87008884.79307        43.563
G13  21417027.570 7 112547238.53207        46.906    21417027.097 5        35.938    21417026.463 5  87699137.41905        35.938
G15  20210202.840 7 106205331.12307        47.125    20210202.527 8        51.219    20210201.303 8  82757397.33808        51.219    20210201.877 7  82757397.34307        45.219
G18  21510514.633 7 113038516.51707        45.688    21510514.392 5        35.063    21510514.527 5  88081960.18605        35.063    21510514.541 7  88081959.19207        43.500    21510517.820 8  84411889.34008        49.563
G20  23390952.322 7 122920274.00007        43.656    23390951.249 4        26.688    23390954.139 4  95782025.96804        26.688
G23  22616750.659 7 118851831.27807        44.156    22616750.463 5        32.375    22616751.721 5  92611816.55205        32.375    22616750.964 7  92611816.54207        42.406    22616753.694 7  88753003.94307        45.438
G24  20510735.891 7 107784650.73407        47.406    20510735.614 8        52.406    20510738.524 8  83988048.60508        52.406    20510738.314 7  83988040.62207        46.656    20510738.131 8  80488546.36708        53.313
J01  38776492.720 7 203771841.33207        46.438    38776491.573 7 158783246.39007        45.281    38776492.940 8 152167287.76708        51.063
J02  37007299.922 7 194474675.07407        44.469    37007303.197 7 151538719.65407        43.469    37007303.940 7 145224616.77807        47.813
J03  37401611.298 6 196546771.45306        40.219    37401619.049 6 153153364.49006        39.594    37401620.386 7 146771989.16607        42.750
J07  37154025.786 6 195245717.83606        39.875    37154026.862 7 152139524.50407        44.688    37154028.325 8 145800387.62508        50.563
> 2021 09 22 06 30 13.0000000  0 19
E02  28192178.471 4                        24.438    28192179.773 5                        30.938    28192176.901 4                        26.188    28192177.840 5 112075192.36305        31.781
E07  24444266.181 7 128455483.32207        46.250    24444269.236 8  95924560.29408        51.813    24444268.639 8  98426937.28908        51.938    24444268.763 9  97175748.33409        54.844
E12  26095760.262 6 137134147.18406        37.406    26095760.545 6 102405370.69906        38.063    26095761.186 6 105076816.27206        39.344    26095760.464 6 103741093.03106        41.688
E19  26935526.207 6 141547151.63206        36.219    26935529.789 6 105700818.05406        36.656    26935528.657 6 108458229.38306        36.750    26935528.788 6 107079523.25906        39.750
E26  25306905.688 7 132988680.00907        43.063    25306911.739 7  99309748.24607        44.688    25306911.450 7 101900434.69907        47.031    25306911.525 8 100605091.01508        48.938
E27  25659339.234 7 134840743.76907        44.688    25659343.769 7 100692781.67807        45.938    25659343.209 8 103319553.86608        48.438    25659343.436 8 102006166.81208        50.281
E30  24782979.154 7 130235439.52507        42.688    24782982.219 7  97253750.72807        46.781    24782981.386 7  99790803.03407        46.906    24782981.672 8  98522277.92508        49.906
E33  25312440.506 7 133017771.66607        42.938    25312442.099 7  99331456.46207        46.844    25312441.874 8 101922710.05308        48.563    25312441.933 8 100627084.29908        50.750
G05  21248886.241 7 111663645.86207        46.344    21248886.063 6        38.781    21248885.738 6  87010628.36306        38.781    21248885.657 7  87010621.36107        43.656
G13  21417430.616 7 112549356.47807        46.969    21417430.138 5        35.969    21417429.486 5  87700787.76505        35.969
G15  20210288.565 7 106205781.81107        46.969    20210288.248 8        51.313    20210287.082 8  82757748.52308        51.313    20210287.581 7  82757748.53107        45.188
G18  21510532.195 7 113038608.48107        45.500    21510531.954 5        35.188    21510532.025 5  88082031.84605        35.188    21510532.172 7  88082030.84907        43.563    21510535.326 8  84411958.01308        49.625
G20  23391612.509 7 122923743.06907        43.375    23391611.441 4        27.000    23391614.258 4  95784729.13704        27.000
G23  22616206.534 7 118848971.88807        44.063    22616206.338 5        32.375    22616207.605 5  92609588.45505        32.375    22616206.756 7  92609588.45707        42.313    22616209.605 7  88750868.68507        45.406
G24  20510350.930 7 107782627.12007        47.188    20510350.649 8        52.500    20510353.428 8  83986471.76408        52.500    20510353.170 7  83986463.77407        46.406    20510353.033 8  80487035.22808        53.344
J01  38776475.707 7 203771751.79307        46.313    38776474.588 7 158783176.61807        45.375    38776475.891 8 152167220.90608        51.031
J02  37007261.299 7 194474471.90807        44.500    37007264.523 7 151538561.34007        43.219    37007265.259 7 145224465.05907        47.906
J03  37401724.903 6 196547368.19806        40.625    37401732.547 6 153153829.48406        39.750    37401733.969 7 146772434.78407        42.719
J07  37154052.415 6 195245857.11006        39.375    37154053.395 7 152139633.03807        44.594    37154054.832 8 145800491.64208        50.625
> 2021 09 22 06 30 14.0000000  0 19
E02  28192559.073 4                        24.438    28192561.153 5                        30.875    28192558.791 4                        26.750    28192559.654 5 112076709.81305        32.063
E07  24444480.562 7 128456609.90807        46.156    24444483.614 8  95925401.57208        51.875    24444483.005 8  98427800.51508        52.000    24444483.150 9  97176600.58509        54.875
E12  26095470.676 6 137132625.73706        37.156    26095470.932 6 102404234.54406        38.063    26095471.653 6 105075650.49206        39.500    26095470.949 6 103739942.06906        41.813
E19  26935211.989 6 141545501.00506        36.406    26935215.643 6 105699585.45806        36.438    26935214.557 6 108456964.63506        36.656    26935214.652 6 107078274.58706        39.531
E26  25307443.680 7 132991507.04907        43.344    25307449.740 7  99311859.35407        44.625    25307449.420 7 101902600.86607        47.063    25307449.488 8 100607229.65208        48.969
E27  25658881.821 7 134838340.24707        44.813    25658886.374 7 100690986.83807        46.125    25658885.840 8 103317712.20908        48.469    25658886.061 8 102004348.56308        50.375
E30  24782959.241 7 130235335.06507        42.594    24782962.306 7  97253672.71907        46.719    24782961.548 7  99790722.99107        46.750    24782961.764 8  98522198.89808        49.813
E33  25312606.015 7 133018641.68207        43.031    25312607.698 7  99332106.14507        46.938    25312607.424 8 101923376.68908        48.625    25312607.490 8 100627742.45908        50.813
G05  21249310.438 7 111665875.04607        46.281    21249310.260 6        38.813    21249309.938 6  87012365.38906        38.813    21249309.974 7  87012358.38907        43.406
G13  21417833.728 7 112551474.75207        46.719    21417833.250 5        35.969    21417832.563 5  87702438.36505        35.969
G15  20210374.426 7 106206232.98507        46.969    20210374.109 8        51.344    20210372.951 8  82758100.08708        51.344    20210373.369 7  82758100.10107        45.219
G18  21510549.847 7 113038701.28407        45.781    21510549.611 5        35.188    21510549.705 5  88082104.15905        35.188    21510549.886 7  88082103.17207        43.438    21510552.966 8  84412027.31508        49.594
G20  23392272.613 7 122927212.53907        43.250    23392271.540 4        27.000    23392274.435 4  95787432.61604        27.000
G23  22615662.589 7 118846112.82507        44.500    22615662.393 5        32.406    22615663.566 5  92607360.61605        32.406    22615662.684 7  92607360.62107        42.344    22615665.575 7  88748733.67807        45.531
G24  20509966.018 7 107780604.22807        47.406    20509965.741 8        52.531    20509968.475 8  83984895.48408        52.531    20509968.277 7  83984887.49207        46.594    20509968.092 8  80485524.62708        53.375
J01  38776458.647 7 203771662.35307        46.406    38776457.508 7 158783106.92207        45.250    38776458.867 8 152167154.11608        51.031
J02  37007222.740 7 194474268.96707        44.500    37007225.875 7 151538403.21707        43.375    37007226.667 7 145224313.52307        47.844
J03  37401838.543 6 196547965.11006        40.531    37401846.128 6 153154294.61406        39.750    37401847.539 7 146772880.52607        42.719
J07  37154079.139 6 195245996.58406        39.438    37154079.908 7 152139741.72507        44.594    37154081.382 8 145800595.79408        50.594
> 2021 09 22 06 30 15.0000000  0 19
E02  28192940.995 4                        24.688    28192942.828 5                        30.344    28192940.377 4                        25.594    28192941.553 5 112078227.46305        31.188
E07  24444694.942 7 128457736.50207        46.188    24444698.008 8  95926242.85808        51.844    24444697.378 8  98428663.74308        51.906    24444697.538 9  97177452.84209        54.844
E12  26095181.058 6 137131104.60906        37.344    26095181.333 6 102403098.63006        38.063    26095182.194 6 105074484.94906        39.500    26095181.496 6 103738791.33806        41.813
E19  26934897.940 6 141543850.36606        36.563    26934901.533 6 105698352.82206        36.781    26934900.433 6 108455699.85606        36.750    26934900.547 6 107077025.88006        39.781
E26  25307981.632 7 132994334.21607        43.219    25307987.758 7  99313970.54707        44.781    25307987.433 7 101904767.13607        47.063    25307987.482 8 100609368.38108        49.000
E27  25658424.472 7 134835936.86507        44.906    25658429.075 7 100689192.11207        46.094    25658428.496 8 103315870.65708        48.375    25658428.717 8 102002530.42408        50.313
E30  24782939.367 7 130235231.00307        42.469    24782942.479 7  97253595.01307        46.719    24782941.746 7  99790643.26007        46.813    24782941.932 8  98522120.17908        49.813
E33  25312771.604 7 133019512.10007        42.875    25312773.316 7  99332756.13507        46.875    25312773.063 8 101924043.63208        48.594    25312773.123 8 100628400.92508        50.750
G05  21249734.545 7 111668104.58707        46.688    21249734.362 6        38.813    21249734.201 6  87014102.69306        38.813    21249734.348 7  87014095.69907        43.500
G13  21418236.790 7 112553593.13507        46.656    21418236.312 5        35.938    21418235.670 5  87704089.05305        35.938
G15  20210460.380 7 106206684.40207        47.063    20210460.067 8        51.375    20210458.860 8  82758451.84208        51.375    20210459.217 7  82758451.84607        45.250
G18  21510567.602 7 113038794.71307        45.688    21510567.366 5        35.188    21510567.494 5  88082176.95805        35.188    21510567.493 7  88082175.96507        43.406    21510570.731 8  84412097.08108        49.500
G20  23392932.897 7 122930682.19007        43.375    23392931.824 4        27.156    23392934.679 4  95790136.24104        27.156
G23  22615118.588 7 118843253.84907        44.125    22615118.392 5        32.438    22615119.530 5  92605132.84505        32.438    22615118.736 7  92605132.84707        42.375    22615121.514 7  88746598.73707        45.469
G24  20509581.161 7 107778581.81107        47.406    20509580.880 8        52.563    20509583.620 8  83983319.57708        52.563    20509583.515 7  83983311.58907        46.688    20509583.236 8  80484014.38108        53.375
J01  38776441.590 7 203771572.76807        46.094    38776440.423 7 158783037.11807        45.125    38776441.840 8 152167087.21908        51.063
J02  37007184.113 7 194474066.03907        44.594    37007187.148 7 151538245.09907        43.375    37007188.023 7 145224161.98507        47.969
J03  37401952.024 6 196548561.98606        40.531    37401960.091 6 153154759.68806        39.844    37401961.110 7 146773326.22807        42.688
J07  37154105.801 6 195246136.00406        39.625    37154106.396 7 152139850.36007        44.656    37154107.915 8 145800699.90408        50.594
> 2021 09 22 06 30 16.0000000  0 19
E02  28193322.880 4                        25.094    28193324.986 5                        31.188    28193321.721 4                        25.281    28193323.421 5 112079745.34505        31.563
E07  24444909.445 7 128458863.15907        46.313    24444912.432 8  95927084.19408        51.875    24444911.767 8  98429527.02708        52.031    24444911.930 9  97178305.15209        54.906
E12  26094891.681 6 137129583.86606        37.250    26094892.019 6 102401963.02506        38.156    26094892.858 6 105073319.71006        39.750    26094892.110 7 103737640.91407        42.000
E19  26934583.734 6 141542199.68206        36.563    26934587.358 6 105697120.20706        36.563    26934586.335 6 108454435.06206        36.594    26934586.456 6 107075777.17606        39.688
E26  25308519.580 7 132997161.54307        43.250    25308525.779 7  99316081.86407        44.781    25308525.445 7 101906933.52707        47.031    25308525.503 8 100611507.23708        49.000
E27  25657967.140 7 134833533.66707        45.188    25657971.729 7 100687397.52107        46.125    25657971.172 8 103314029.24608        48.438    25657971.395 8 102000712.42208        50.375
E30  24782919.690 7 130235127.40607        43.000    24782922.735 7  97253517.65907        46.781    24782922.034 7  99790563.88707        46.844    24782922.235 8  98522041.81608        49.875
E33  25312937.342 7 133020382.98007        42.938    25312939.038 7  99333406.47207        46.938    25312938.805 8 101924710.93208        48.656    25312938.855 8 100629059.74308        50.844
